# LAS format data
~Version Information
VERS.     2.00: CWLS LOG ASCII STANDARD - VERSION 2.0
WRAP.       NO: ONE LINE PER DEPTH STEP
~Well Information
#MNEM   .UNITS    DATA                           DESCRIPTION
#----   ------    ----                           -----------
STRT    .M        3156.8657                     :First Index Value
STOP    .M        38.0000                       :Last Index Value
STEP    .M        -0.1524                       :Frame Spacing
NULL    .         -999.2500                     :Absent Value
WELL    .         F/3-4                         :Well Name
FLD     .         APPRAISAL                     :Field Name
CNTY    .         NETHERLANDS                   :County
STAT    .         NORTH SEA                     :State
CTRY    .                                       :Country
LOC     .                                       :Location
API     .                                       :API Number
DATE    .                                       :Date
COMP    .         N.A.M.                        :Company Name
SRVC    .                                       :Service Company
~Other Information
GR RUN 1 FROM FDN SHIFTED +2M AS PER COMMENTS ON LOG HEADER 
~Curve Information
#MNEM   .UNITS    API CODE                       CURVE DESCRIPTION
#----   ------    --------                       -----------------
DEPT    .M                                      :1     Index curve
GR      .GAPI                                   :2     BHCFDN
DT      .US/F                                   :3     BHC   
RHOB    .G/CC                                   :4     FDN   
DRHO    .G/CC                                   :5     FDN   
NPHI    .PU                                     :6     FDN   
CALI    .IN                                     :7     FDN   
SP      .MV                                     :8     DLL   
LLS     .OHMM                                   :9     DLL   
LLD     .OHMM                                   :10    DLL   
MSFL    .OHMM                                   :11    DLL   
SN      .OHMM                                   :12    IEL   
ILD     .OHMM                                   :13    IEL   
~Ascii Log Data
# ...
    2083.9697     14.591619     69.840775      2.448358      0.013688   -999.250000     12.309412     53.610367      0.929469      0.305951      1.342395      0.979863      1.053564
    2083.8174     15.151545     69.601349      2.458503      0.026601   -999.250000     12.315006     53.353600      0.918400      0.290330      1.271935      0.985145      1.056286
    2083.6650     15.921301     70.146683      2.482729      0.040282   -999.250000     12.316948     53.512825      0.915522      0.274920      1.224676      0.990313      1.058647
    2083.5127     16.984142     70.463455      2.455497      0.046196   -999.250000     12.318693     53.637543      0.912652      0.295440      1.184756      0.995040      1.060214
    2083.3604     15.890997     70.803314      2.460258      0.034315   -999.250000     12.320436     53.786530      0.909792      0.308493      1.237167      0.997252      1.064153
    2083.2080     15.039858     71.031677      2.447891      0.040387   -999.250000     12.322180     53.931747      0.901742      0.300164      1.298296      0.995609      1.070444
    2083.0557     14.192734     71.191742      2.423476      0.030646   -999.250000     12.323984     54.072136      0.891330      0.293643      1.233384      0.991992      1.078022
    2082.9033     13.936083     71.306122      2.412752      0.019022   -999.250000     12.325850     54.199791      0.881039      0.290364      1.178499      0.986856      1.085222
    2082.7510     13.618505     71.420685      2.420424      0.015766   -999.250000     12.327717     54.327454      0.865685      0.286982      1.229231      0.986577      1.072364
    2082.5981     13.447237     71.520584      2.451275      0.029093   -999.250000     12.329582     54.447632      0.847366      0.280018      1.294175      0.986273      1.037738
    2082.4458     13.365814     71.752899      2.460572      0.039383   -999.250000     12.331448     54.564445      0.825917      0.266731      1.263817      0.981205      1.004225
    2082.2935     16.202183     71.959106      2.473923      0.048421   -999.250000     12.332541     54.686493      0.804829      0.257181      1.217818      0.971550      0.993134
    2082.1411     15.534561     72.087326      2.482588      0.063268   -999.250000     12.330000     54.777184      0.779316      0.249296      1.159099      0.967011      0.980810
    2081.9888     12.653667     72.074860      2.468495      0.070255   -999.250000     12.328306     54.893944      0.756027      0.241853      1.110172      0.965013      0.972548
    2081.8364     11.868744     72.065826      2.476779      0.063295   -999.250000     12.326614     54.952469      0.735280      0.234028      1.082605      0.959313      0.965673
    2081.6841     13.195351     72.061493      2.471995      0.068036   -999.250000     12.324921     55.028084      0.715133      0.227353      1.170456      0.948699      0.956351
    2081.5317     14.958624     72.206879      2.453757      0.058542   -999.250000     12.323227     55.086487      0.702857      0.221472      1.205208      0.940556      0.944720
    2081.3794     16.225281     72.291046      2.430673      0.036708   -999.250000     12.318588     55.182007      0.695325      0.219958      1.083017      0.930259      0.936063
    2081.2266     15.018908     72.449692      2.453887      0.052694   -999.250000     12.314735     55.226151      0.689634      0.218686      1.041781      0.921736      0.930391
    2081.0742     13.836979     71.726242      2.442144      0.041206   -999.250000     12.310883     55.245789      0.682610      0.214007      1.074643      0.912037      0.919108
    2080.9219     12.957348     71.369766      2.463247      0.047125   -999.250000     12.306318     55.266991      0.672348      0.204888      1.000637      0.902642      0.901391
    2080.7695     12.606314     71.115189      2.441332      0.042977   -999.250000     12.300137     55.337921      0.649680      0.193998      0.918993      0.889076      0.888022
    2080.6172     14.758108     70.690399      2.452028      0.048735   -999.250000     12.292570     55.415161      0.627500      0.183983      0.931010      0.876232      0.861307
    2080.4648     16.088833     70.079620      2.442095      0.039903   -999.250000     12.285006     55.492531      0.625328      0.179046      0.941245      0.863431      0.841654
    2080.3125     16.201538     69.878662      2.436918      0.025062   -999.250000     12.277441     55.587845      0.623142      0.181603      0.897892      0.853210      0.817314
    2080.1602     16.233227     70.939758      2.469269      0.033637   -999.250000     12.265511     55.569687      0.633486      0.183390      0.881792      0.844817      0.795201
    2080.0073     14.300865     70.551849      2.468870      0.044086   -999.250000     12.249586     55.545990      0.641902      0.179260      0.891487      0.840670      0.773897
    2079.8550     13.011694     70.129883      2.444455      0.029025   -999.250000     12.233664     55.522247      0.641420      0.175946      0.907396      0.834854      0.753235
    2079.7026     12.665165     69.643234      2.461333      0.024237   -999.250000     12.216463     55.485626      0.641017      0.176834      0.919662      0.826750      0.740744
    2079.5503     13.880701     69.428375      2.486736      0.047009   -999.250000     12.212709     55.444206      0.640721      0.177951      0.879445      0.819129      0.731778
    2079.3979     15.258419     70.940460      2.452697      0.029867   -999.250000     12.208635     55.402786      0.654414      0.179351      0.853598      0.812513      0.727383
    2079.2456     15.833380     71.184006      2.450740      0.024584   -999.250000     12.204561     55.366814      0.668632      0.183490      0.874176      0.807107      0.723778
    2079.0933     13.132380     70.262207      2.494593      0.055314   -999.250000     12.199638     55.275772      0.687854      0.192343      0.946611      0.804284      0.720379
    2078.9409     14.244980     69.213669      2.468222      0.041099   -999.250000     12.221254     55.195419      0.711431      0.203295      0.988151      0.806078      0.706281
    2078.7886     17.705704     69.038223      2.457294      0.034069   -999.250000     12.250704     55.066360      0.730928      0.208545      1.011833      0.807643      0.692267
    2078.6357     19.124195     69.832138      2.455060      0.030926   -999.250000     12.287209     54.912949      0.754216      0.215327      1.038120      0.815538      0.686525
    2078.4834     15.602871     71.146545      2.480066      0.057053   -999.250000     12.322128     54.792953      0.787491      0.220878      1.068156      0.813429      0.694160
    2078.3311     13.363380     72.307510      2.487793      0.056832   -999.250000     12.326078     54.734169      0.812904      0.221095      1.094093      0.812322      0.700873
    2078.1787     14.829504     73.042267      2.491533      0.056642   -999.250000     12.329620     54.662758      0.803139      0.221248      1.107361      0.823928      0.713046
    2078.0264     15.425661     73.437469      2.488389      0.070281   -999.250000     12.333157     54.629791      0.773092      0.210584      1.012370      0.830261      0.725840
    2077.8740     14.985720     73.542816      2.471488      0.055597   -999.250000     12.336590     54.587738      0.747568      0.205799      1.036414      0.833380      0.741285
    2077.7217     14.307816     72.618912      2.450198      0.034105   -999.250000     12.336294     54.543396      0.784723      0.217709      1.089554      0.836515      0.758913
    2077.5693     13.388105     72.994186      2.457922      0.026356   -999.250000     12.336006     54.506119      0.813345      0.220317      1.165811      0.841936      0.778934
    2077.4170     12.729599     73.042374      2.449936      0.020041   -999.250000     12.335718     54.466621      0.857921      0.227782      1.203733      0.849169      0.799307
