# LAS format data
~Version Information
VERS.     2.00: CWLS LOG ASCII STANDARD - VERSION 2.0
WRAP.       NO: ONE LINE PER DEPTH STEP
~Well Information
#MNEM   .UNITS    DATA                           DESCRIPTION
#----   ------    ----                           -----------
STRT    .M        3156.8657                     :First Index Value
STOP    .M        38.0000                       :Last Index Value
STEP    .M        -0.1524                       :Frame Spacing
NULL    .         -999.2500                     :Absent Value
WELL    .         F/3-4                         :Well Name
FLD     .         APPRAISAL                     :Field Name
CNTY    .         NETHERLANDS                   :County
STAT    .         NORTH SEA                     :State
CTRY    .                                       :Country
LOC     .                                       :Location
API     .                                       :API Number
DATE    .                                       :Date
COMP    .         N.A.M.                        :Company Name
SRVC    .                                       :Service Company
~Other Information
GR RUN 1 FROM FDN SHIFTED +2M AS PER COMMENTS ON LOG HEADER 
~Curve Information
#MNEM   .UNITS    API CODE                       CURVE DESCRIPTION
#----   ------    --------                       -----------------
DEPT    .M                                      :1     Index curve
GR      .GAPI                                   :2     BHCFDN
DT      .US/F                                   :3     BHC   
RHOB    .G/CC                                   :4     FDN   
DRHO    .G/CC                                   :5     FDN   
NPHI    .PU                                     :6     FDN   
CALI    .IN                                     :7     FDN   
SP      .MV                                     :8     DLL   
LLS     .OHMM                                   :9     DLL   
LLD     .OHMM                                   :10    DLL   
MSFL    .OHMM                                   :11    DLL   
SN      .OHMM                                   :12    IEL   
ILD     .OHMM                                   :13    IEL   
~Ascii Log Data
# ...
     481.3316     75.072906    153.189484      1.992035      0.044593   -999.250000     19.438774     40.098663      0.575452      0.770285      0.392307   -999.250000   -999.250000
     481.1792     67.678177    152.599548      1.994162      0.038750   -999.250000     19.529991     40.332817      0.539410      0.695915      0.322827   -999.250000   -999.250000
     481.0268     62.905060    153.737976      1.971735      0.033136   -999.250000     19.466801     40.525917      0.493829      0.647475      0.323812   -999.250000   -999.250000
     480.8744     59.133942    156.299347      1.965687      0.036288   -999.250000     19.048164     40.582062      0.485376      0.641341      0.374092   -999.250000   -999.250000
     480.7220     58.709068    160.861023      2.014314      0.046402   -999.250000     18.659660     40.222260      0.532508      0.728230      0.428503   -999.250000   -999.250000
     480.5696     61.597908    164.626221      2.019442      0.033965   -999.250000     18.571701     39.896286      0.570219      0.802432      0.506331   -999.250000   -999.250000
     480.4172     68.317856    167.088501      1.981905      0.020403   -999.250000     18.532822     39.553596      0.617856      0.875130      0.527187   -999.250000   -999.250000
     480.2648     71.748276    167.889191      1.977502      0.008110   -999.250000     18.563953     39.161316      0.667455      0.936170      0.530781   -999.250000   -999.250000
     480.1124     72.154022    168.109772      1.996376      0.025277   -999.250000     18.623810     38.747551      0.701240      0.978398      0.538109   -999.250000   -999.250000
     479.9600     68.261719    166.804932      1.972716      0.012738   -999.250000     18.712364     38.405746      0.721852      1.002602      0.540787   -999.250000   -999.250000
     479.8076     73.341843    168.221985      1.969968      0.003121   -999.250000     18.860943     38.092598      0.735185      1.013314      0.502227   -999.250000   -999.250000
     479.6552     77.691681    168.754059      1.977745      0.004850   -999.250000     19.107410     38.156013      0.729705      0.990598      0.510723   -999.250000   -999.250000
     479.5028     77.023560    165.903717      1.981897      0.021613   -999.250000     19.224216     38.329002      0.700531      0.940581      0.516988   -999.250000   -999.250000
     479.3504     73.839691    162.842590      1.918390      0.027096   -999.250000     19.040550     38.595879      0.639313      0.826669      0.519134   -999.250000   -999.250000
     479.1980     73.658371    161.301514      1.885009      0.014543   -999.250000     19.741093     38.743225      0.580443      0.741727      0.501503   -999.250000   -999.250000
     479.0456     69.280624    159.325653      1.884817      0.005980   -999.250000     19.293175     38.958092      0.540451      0.669725      0.488086   -999.250000   -999.250000
     478.8932     68.023849    158.853241      1.959193      0.017519   -999.250000     19.240170     39.050865      0.562320      0.714759      0.477776   -999.250000   -999.250000
     478.7408     70.098877    155.923737      1.998282      0.011768   -999.250000     19.681076     38.912796      0.599932      0.781934      0.474897   -999.250000   -999.250000
     478.5884     68.340958    151.690094      2.012089      0.007598   -999.250000     19.751732     38.807014      0.664529      0.894730      0.486048   -999.250000   -999.250000
     478.4360     71.368484    150.206085      2.028492      0.006296   -999.250000     19.856606     38.755791      0.704590      0.938067      0.507163   -999.250000   -999.250000
     478.2836     67.104370    150.827332      2.029623      0.012732   -999.250000     20.415600     38.707764      0.668977      0.811208      0.516896   -999.250000   -999.250000
     478.1312     62.169350    151.534363      2.009981      0.004729   -999.250000     20.660225     38.993370      0.621190      0.750444      0.375309   -999.250000   -999.250000
     477.9788     58.752365    151.658508      2.037420      0.037797   -999.250000     20.488426     39.427803      0.586805      0.699354      0.250163   -999.250000   -999.250000
     477.8264     55.335030    150.261902      2.043486      0.044229   -999.250000     20.320663     40.327492      0.569448      0.654357      0.242318   -999.250000   -999.250000
     477.6740     58.291138    149.185791      2.027942      0.019413   -999.250000     20.580959     40.072205      0.602984      0.684821      0.349318   -999.250000   -999.250000
     477.5216     60.242668    148.893585      2.021989      0.009612   -999.250000     20.991901     39.690285      0.643558      0.728312      0.366247   -999.250000   -999.250000
     477.3692     60.460899    153.285767      2.026071      0.032142   -999.250000     20.879997     39.137955      0.717309      0.796088      0.305228   -999.250000   -999.250000
     477.2168     63.002075    157.035370      1.967721      0.011251   -999.250000     21.025295     38.446136      0.735214      0.830281      0.385153   -999.250000   -999.250000
     477.0644     58.315140    158.171173      1.921721      0.007075   -999.250000     24.075466     38.451073      0.719033      0.700590      0.498581   -999.250000   -999.250000
     476.9120     55.660019    158.470215      1.938209      0.034114   -999.250000     24.370945     38.455566      0.589226      0.562989      0.278971   -999.250000   -999.250000
     476.7596     54.143913    151.103363      1.957229      0.057990   -999.250000     22.151157     38.378334      0.455728      0.463420      0.226175   -999.250000   -999.250000
     476.6072     53.297310    138.649139      1.959381      0.061920   -999.250000     20.403343     38.269562      0.428796      0.506087      0.218871   -999.250000   -999.250000
     476.4548     52.556107    128.860565      1.874085      0.040489   -999.250000     18.732780     38.179665      0.535810      0.580954      0.336877   -999.250000   -999.250000
     476.3024     52.458961    112.340027      1.833162      0.017390   -999.250000     18.463257     38.185356      0.618793      0.702445      0.475371   -999.250000   -999.250000
     476.1500     54.637283    110.141891      1.802811      0.010229   -999.250000     18.332314     38.225525      0.846469      0.924278      2.685935   -999.250000   -999.250000
     475.9976     53.356224    110.068237      1.782460     -0.002910   -999.250000     18.245895     38.263252      1.159675      1.204613      3.086020   -999.250000   -999.250000
     475.8452     56.317734    110.241470      1.768732     -0.008031   -999.250000     18.206642     38.068077      1.222026      1.213222      2.209259   -999.250000   -999.250000
     475.6928     54.265182    110.477478      1.762018     -0.011599   -999.250000     18.179317     37.950005      1.162341      1.121845      2.175491   -999.250000   -999.250000
     475.5404     50.780022    111.113937      1.754413     -0.016017   -999.250000     18.164288     37.850784      1.158959      1.043851      2.459067   -999.250000   -999.250000
     475.3880     47.294853    111.811630      1.759034     -0.015362   -999.250000     18.078941     37.762184      1.173560      1.026617      2.438264   -999.250000   -999.250000
     475.2356     45.552269    111.128113      1.770113     -0.005872   -999.250000     18.049831     37.419540      1.188051      1.031868      2.660487   -999.250000   -999.250000
     475.0832     49.462463    110.792297      1.776018      0.000373   -999.250000     18.045544     36.962280      1.207510      1.038622      2.857013   -999.250000   -999.250000
     474.9308     49.024567    108.993683      1.769595     -0.010128   -999.250000     18.031872     36.244202      1.242559      1.055587      3.765421   -999.250000   -999.250000
     474.7784     51.311615    107.802811      1.771717     -0.008718   -999.250000     18.008125     35.388657      1.287596      1.103963      4.179730   -999.250000   -999.250000
