# LAS format data
~Version Information
VERS.     2.00: CWLS LOG ASCII STANDARD - VERSION 2.0
WRAP.       NO: ONE LINE PER DEPTH STEP
~Well Information
#MNEM   .UNITS    DATA                           DESCRIPTION
#----   ------    ----                           -----------
STRT    .M        3156.8657                     :First Index Value
STOP    .M        38.0000                       :Last Index Value
STEP    .M        -0.1524                       :Frame Spacing
NULL    .         -999.2500                     :Absent Value
WELL    .         F/3-4                         :Well Name
FLD     .         APPRAISAL                     :Field Name
CNTY    .         NETHERLANDS                   :County
STAT    .         NORTH SEA                     :State
CTRY    .                                       :Country
LOC     .                                       :Location
API     .                                       :API Number
DATE    .                                       :Date
COMP    .         N.A.M.                        :Company Name
SRVC    .                                       :Service Company
~Other Information
GR RUN 1 FROM FDN SHIFTED +2M AS PER COMMENTS ON LOG HEADER 
~Curve Information
#MNEM   .UNITS    API CODE                       CURVE DESCRIPTION
#----   ------    --------                       -----------------
DEPT    .M                                      :1     Index curve
GR      .GAPI                                   :2     BHCFDN
DT      .US/F                                   :3     BHC   
RHOB    .G/CC                                   :4     FDN   
DRHO    .G/CC                                   :5     FDN   
NPHI    .PU                                     :6     FDN   
CALI    .IN                                     :7     FDN   
SP      .MV                                     :8     DLL   
LLS     .OHMM                                   :9     DLL   
LLD     .OHMM                                   :10    DLL   
MSFL    .OHMM                                   :11    DLL   
SN      .OHMM                                   :12    IEL   
ILD     .OHMM                                   :13    IEL   
~Ascii Log Data
# ...
    1728.5732     50.305725    160.142181      2.041074      0.016965   -999.250000     14.415121     41.994652      0.382341      0.186525      0.165838   -999.250000   -999.250000
    1728.4207     46.663406    161.276978      2.043412      0.003487   -999.250000     13.767099     42.065720      0.380955      0.187790      0.164912   -999.250000   -999.250000
    1728.2683     46.428413    159.870361      2.035097      0.002856   -999.250000     13.835495     42.106003      0.392571      0.188545      0.179359   -999.250000   -999.250000
    1728.1160     50.375374    158.721619      2.056739      0.029833   -999.250000     13.556536     42.113136      0.412820      0.189530      0.181742   -999.250000   -999.250000
    1727.9636     48.026131    154.509430      2.033390      0.017926   -999.250000     14.000517     42.120270      0.444662      0.190520      0.181000   -999.250000   -999.250000
    1727.8113     45.661819    154.032745      2.001262      0.036215   -999.250000     13.718386     42.127396      0.456406      0.191516      0.180616   -999.250000   -999.250000
    1727.6587     44.876434    155.541168      1.935045      0.022661   -999.250000     13.661718     42.134537      0.428534      0.191951      0.190577   -999.250000   -999.250000
    1727.5063     50.538277    154.751984      1.892929      0.010405   -999.250000     14.334103     42.140106      0.408388      0.192022      0.210411   -999.250000   -999.250000
    1727.3540     51.548431    153.400085      1.899484      0.006488   -999.250000     14.953169     42.004890      0.388729      0.192093      0.198055   -999.250000   -999.250000
    1727.2017     47.980644    150.141418      1.891099      0.006397   -999.250000     14.189110     41.893784      0.377970      0.192121      0.194908   -999.250000   -999.250000
    1727.0491     46.425682    145.515137      1.896018      0.006321   -999.250000     14.800285     41.831604      0.387936      0.191539      0.269341   -999.250000   -999.250000
    1726.8967     46.965866    147.679962      1.887706      0.002080   -999.250000     14.458858     41.841881      0.406201      0.191176      0.300850   -999.250000   -999.250000
    1726.7444     48.328293    150.305847      1.895208     -0.002728   -999.250000     14.765234     41.849007      0.432876      0.190600      0.237382   -999.250000   -999.250000
    1726.5920     48.327988    153.119202      1.956002     -0.005264   -999.250000     14.203133     41.856140      0.453575      0.189736      0.213590   -999.250000   -999.250000
    1726.4395     51.076393    156.057617      1.998175     -0.005723   -999.250000     13.830612     41.940155      0.455324      0.188876      0.246768   -999.250000   -999.250000
    1726.2871     47.456055    155.010529      1.999339     -0.005881   -999.250000     14.266741     42.053154      0.456447      0.187795      0.246816   -999.250000   -999.250000
    1726.1348     46.611832    154.909027      1.954237      0.006379   -999.250000     13.856152     42.166069      0.417330      0.186300      0.223759   -999.250000   -999.250000
    1725.9824     48.326508    155.147858      1.993119      0.002580   -999.250000     13.669502     42.241890      0.400071      0.185104      0.204308   -999.250000   -999.250000
    1725.8301     45.718475    155.537018      1.989593     -0.002965   -999.250000     13.684612     42.082169      0.390862      0.184686      0.190660   -999.250000   -999.250000
    1725.6775     44.802116    156.081421      1.998704      0.000781   -999.250000     13.840033     41.990990      0.388421      0.184547      0.181361   -999.250000   -999.250000
    1725.5251     51.144852    155.346954      2.019322     -0.004165   -999.250000     13.915646     41.905022      0.412054      0.187321      0.174298   -999.250000   -999.250000
    1725.3728     46.234306    156.816162      2.054903      0.015695   -999.250000     13.603867     42.038177      0.428086      0.188345      0.168569   -999.250000   -999.250000
    1725.2205     44.284203    155.839447      2.074921      0.026410   -999.250000     14.175930     42.363457      0.410509      0.188822      0.173623   -999.250000   -999.250000
    1725.0679     47.267403    159.531982      2.045866      0.007909   -999.250000     13.860826     42.725739      0.396183      0.189306      0.176533   -999.250000   -999.250000
    1724.9155     47.079201    150.564941      1.985669      0.010091   -999.250000     13.653940     42.515343      0.384843      0.189475      0.168408   -999.250000   -999.250000
    1724.7632     47.351830    149.549866      2.018209      0.011912   -999.250000     13.729959     42.268646      0.375308      0.189647      0.175862   -999.250000   -999.250000
    1724.6108     47.498375    151.912231      2.045049      0.017826   -999.250000     13.820440     42.018768      0.383159      0.189819      0.178100   -999.250000   -999.250000
    1724.4583     46.884377    152.812347      2.065039      0.023993   -999.250000     13.541485     41.925064      0.393501      0.190020      0.176580   -999.250000   -999.250000
    1724.3059     45.706734    154.517365      2.088150      0.033099   -999.250000     13.764908     42.094177      0.405353      0.189883      0.176206   -999.250000   -999.250000
    1724.1536     46.798378    158.668671      2.119771      0.041458   -999.250000     13.509291     42.181686      0.419899      0.189719      0.176876   -999.250000   -999.250000
    1724.0012     48.074112    157.020935      2.178872      0.045422   -999.250000     13.937933     42.446083      0.439631      0.189556      0.177301   -999.250000   -999.250000
    1723.8489     47.292038    151.662048      2.200305      0.031603   -999.250000     13.981186     42.674301      0.449015      0.189456      0.177422   -999.250000   -999.250000
    1723.6963     46.681175    155.156464      2.197463      0.009519   -999.250000     13.554981     42.767494      0.419290      0.189558      0.171771   -999.250000   -999.250000
    1723.5439     46.610817    156.846527      2.206832      0.020690   -999.250000     14.875069     42.751175      0.400005      0.189632      0.173081   -999.250000   -999.250000
    1723.3916     46.397156    156.924957      2.205637      0.043721   -999.250000     13.968525     42.742447      0.383718      0.189706      0.174503   -999.250000   -999.250000
    1723.2393     42.941452    153.161194      2.190266      0.052006   -999.250000     13.447115     42.636559      0.376739      0.189728      0.167086   -999.250000   -999.250000
    1723.0867     42.751740    152.841522      2.129391      0.035457   -999.250000     13.950468     42.544411      0.402488      0.189210      0.177426   -999.250000   -999.250000
    1722.9343     46.083038    156.749908      2.062495      0.016973   -999.250000     14.359859     42.485931      0.421531      0.188906      0.192389   -999.250000   -999.250000
    1722.7820     45.259010    157.393677      2.046530      0.027509   -999.250000     14.434807     42.543396      0.442965      0.188633      0.198250   -999.250000   -999.250000
    1722.6296     48.357140    156.504028      2.000400      0.017698   -999.250000     13.814499     42.585449      0.427502      0.188187      0.197904   -999.250000   -999.250000
    1722.4771     52.668167    148.802490      1.974334      0.010557   -999.250000     13.571653     42.605064      0.418469      0.187784      0.197539   -999.250000   -999.250000
    1722.3247     54.905190    152.398376      1.960773      0.015293   -999.250000     15.021654     42.517197      0.406757      0.187381      0.193666   -999.250000   -999.250000
    1722.1724     56.994064    147.594269      1.935211      0.009875   -999.250000     14.115021     42.459885      0.395365      0.187259      0.184196   -999.250000   -999.250000
    1722.0200     57.884109    152.080719      1.912456      0.002096   -999.250000     14.845407     42.429283      0.384300      0.187383      0.174752   -999.250000   -999.250000
