# LAS format data
~Version Information
VERS.     2.00: CWLS LOG ASCII STANDARD - VERSION 2.0
WRAP.       NO: ONE LINE PER DEPTH STEP
~Well Information
#MNEM   .UNITS    DATA                           DESCRIPTION
#----   ------    ----                           -----------
STRT    .M        3156.8657                     :First Index Value
STOP    .M        38.0000                       :Last Index Value
STEP    .M        -0.1524                       :Frame Spacing
NULL    .         -999.2500                     :Absent Value
WELL    .         F/3-4                         :Well Name
FLD     .         APPRAISAL                     :Field Name
CNTY    .         NETHERLANDS                   :County
STAT    .         NORTH SEA                     :State
CTRY    .                                       :Country
LOC     .                                       :Location
API     .                                       :API Number
DATE    .                                       :Date
COMP    .         N.A.M.                        :Company Name
SRVC    .                                       :Service Company
~Other Information
GR RUN 1 FROM FDN SHIFTED +2M AS PER COMMENTS ON LOG HEADER 
~Curve Information
#MNEM   .UNITS    API CODE                       CURVE DESCRIPTION
#----   ------    --------                       -----------------
DEPT    .M                                      :1     Index curve
GR      .GAPI                                   :2     BHCFDN
DT      .US/F                                   :3     BHC   
RHOB    .G/CC                                   :4     FDN   
DRHO    .G/CC                                   :5     FDN   
NPHI    .PU                                     :6     FDN   
CALI    .IN                                     :7     FDN   
SP      .MV                                     :8     DLL   
LLS     .OHMM                                   :9     DLL   
LLD     .OHMM                                   :10    DLL   
MSFL    .OHMM                                   :11    DLL   
SN      .OHMM                                   :12    IEL   
ILD     .OHMM                                   :13    IEL   
~Ascii Log Data
# ...
    2975.8149     69.578674    111.398880      1.631878      0.000411     54.991333      8.590641     34.831261      1.662103      1.264943   -999.250000   -999.250000   -999.250000
    2975.6621     81.644485    102.846512      1.963428      0.013586     55.486542      8.614309     34.673149      1.438512      1.083374   -999.250000   -999.250000   -999.250000
    2975.5098     88.823257     99.122604      2.013633      0.001053     48.967125      8.633427     34.848000      1.333183      1.067211   -999.250000   -999.250000   -999.250000
    2975.3574     95.951904     96.149384      2.237993     -0.016210     41.653473      8.722404     35.094505      1.430480      1.186890   -999.250000   -999.250000   -999.250000
    2975.2051    102.793808     92.606705      2.375073     -0.005833     37.851753      8.676390     35.364738      1.496603      1.197925   -999.250000   -999.250000   -999.250000
    2975.0527    108.580399     90.707199      2.413591      0.001786     33.790924      8.642820     35.694481      1.459269      1.208207   -999.250000   -999.250000   -999.250000
    2974.9004    110.677887     90.491714      2.450627      0.014774     32.679703      8.660501     35.952477      1.403608      1.155176   -999.250000   -999.250000   -999.250000
    2974.7480    113.224457     91.690338      2.465790      0.010087     31.209877      8.677929     36.074242      1.340362      1.110553   -999.250000   -999.250000   -999.250000
    2974.5957    117.169174     93.090118      2.473525      0.017942     29.928192      8.686253     36.196167      1.266278      1.046111   -999.250000   -999.250000   -999.250000
    2974.4429    118.897842     94.500000      2.463540      0.013190     28.813839      8.678507     36.067406      1.213038      1.008138   -999.250000   -999.250000   -999.250000
    2974.2905    119.428238     97.689575      2.451148      0.004871     29.522079      8.673424     35.902489      1.179965      1.000048   -999.250000   -999.250000   -999.250000
    2974.1382    119.585831     98.217987      2.468304      0.002671     30.612541      8.668343     35.736168      1.171161      1.005294   -999.250000   -999.250000   -999.250000
    2973.9858    118.620773     97.726364      2.477654      0.013070     32.358101      8.663219     35.568260      1.163595      1.009411   -999.250000   -999.250000   -999.250000
    2973.8335    116.246536     97.486084      2.486386     -0.009223     31.950706      8.658056     35.419464      1.158674      1.013545   -999.250000   -999.250000   -999.250000
    2973.6812    115.256790     96.641205      2.502642     -0.002001     32.636208      8.652895     35.599098      1.169789      1.018220   -999.250000   -999.250000   -999.250000
    2973.5288    115.940048     96.298096      2.521902      0.014166     33.551414      8.647734     35.760147      1.178105      1.024448   -999.250000   -999.250000   -999.250000
    2973.3765    115.914352     96.150360      2.508083      0.004766     34.761421      8.645466     35.940529      1.197168      1.047638   -999.250000   -999.250000   -999.250000
    2973.2241    113.421814     95.820282      2.488763     -0.000172     34.373268      8.649282     36.132919      1.220371      1.075775   -999.250000   -999.250000   -999.250000
    2973.0713    112.850601     95.320496      2.486459      0.008193     34.727158      8.651726     36.354607      1.232748      1.104997   -999.250000   -999.250000   -999.250000
    2972.9189    114.439194     95.030075      2.481333      0.006225     35.280586      8.654169     36.418564      1.226551      1.113229   -999.250000   -999.250000   -999.250000
    2972.7666    113.570587     94.840775      2.473857      0.004241     32.509399      8.656721     36.493874      1.222370      1.121603   -999.250000   -999.250000   -999.250000
    2972.6143    112.160629     95.271744      2.463681      0.002867     31.468777      8.655531     36.554573      1.218117      1.130039   -999.250000   -999.250000   -999.250000
    2972.4619    110.796738     94.804321      2.457215      0.002011     30.697800      8.654289     36.447769      1.245842      1.139032   -999.250000   -999.250000   -999.250000
    2972.3096    112.602478     94.235245      2.461754      0.008169     30.597996      8.653046     36.374130      1.274762      1.165585   -999.250000   -999.250000   -999.250000
    2972.1572    116.865463     93.428192      2.480700      0.012828     30.535374      8.651539     36.348137      1.298753      1.194391   -999.250000   -999.250000   -999.250000
    2972.0049    115.697205     91.985443      2.488625      0.017299     31.216740      8.645830     36.322144      1.333138      1.222197   -999.250000   -999.250000   -999.250000
    2971.8525    113.778427     91.129440      2.479138      0.009102     30.164944      8.638603     36.312271      1.359247      1.250224   -999.250000   -999.250000   -999.250000
    2971.6997    111.957855     91.365723      2.495369      0.013747     30.067116      8.631374     36.397545      1.336014      1.229812   -999.250000   -999.250000   -999.250000
    2971.5474    110.348007     91.694580      2.494547      0.001730     28.973122      8.624147     36.475891      1.319508      1.207772   -999.250000   -999.250000   -999.250000
    2971.3950    108.869888     92.309158      2.487390      0.004370     28.541969      8.617546     36.583160      1.290777      1.186127   -999.250000   -999.250000   -999.250000
    2971.2427    110.939590     93.038559      2.472163     -0.011017     29.015202      8.615124     36.703156      1.267164      1.167928   -999.250000   -999.250000   -999.250000
    2971.0903    110.227951     93.646988      2.476331     -0.017280     29.427235      8.612898     36.704292      1.253178      1.157075   -999.250000   -999.250000   -999.250000
    2970.9380    109.819046     93.983246      2.487771     -0.003652     29.274948      8.610672     36.705589      1.247845      1.153272   -999.250000   -999.250000   -999.250000
    2970.7856    110.997818     94.148300      2.497804     -0.001264     29.129776      8.608446     36.706879      1.245910      1.170578   -999.250000   -999.250000   -999.250000
    2970.6333    109.875229     93.612183      2.497076      0.000893     29.481068      8.606192     36.755737      1.275494      1.183510   -999.250000   -999.250000   -999.250000
    2970.4810    107.028122     93.011948      2.487757      0.003753     30.414299      8.594501     36.829422      1.288281      1.177644   -999.250000   -999.250000   -999.250000
    2970.3281    103.196167     92.647247      2.493541      0.008772     31.744617      8.582680     36.903229      1.282774      1.170190   -999.250000   -999.250000   -999.250000
    2970.1758    101.501831     92.466782      2.508990      0.014985     32.374290      8.570858     36.968887      1.273295      1.162795   -999.250000   -999.250000   -999.250000
    2970.0234    103.005615     93.059570      2.532343      0.021159     31.355038      8.559017     37.232330      1.252686      1.148831   -999.250000   -999.250000   -999.250000
    2969.8711    105.225830     94.102631      2.514419      0.026290     29.797543      8.553047     37.469894      1.232378      1.130915   -999.250000   -999.250000   -999.250000
    2969.7188    107.876221     95.127289      2.498463      0.017012     30.462112      8.550808     37.846634      1.215235      1.113250   -999.250000   -999.250000   -999.250000
    2969.5664    108.864487     95.401810      2.487253      0.026447     30.219872      8.548571     38.425194      1.204530      1.093049   -999.250000   -999.250000   -999.250000
    2969.4141    111.799774     94.796387      2.474585      0.015031     30.878490      8.546331     39.047585      1.193919      1.084692   -999.250000   -999.250000   -999.250000
    2969.2617    114.485855     95.241638      2.456186      0.002816     32.026009      8.545118     39.907021      1.190403      1.082123   -999.250000   -999.250000   -999.250000
