# LAS format data
~Version Information
VERS.     2.00: CWLS LOG ASCII STANDARD - VERSION 2.0
WRAP.       NO: ONE LINE PER DEPTH STEP
~Well Information
#MNEM   .UNITS    DATA                           DESCRIPTION
#----   ------    ----                           -----------
STRT    .M        3156.8657                     :First Index Value
STOP    .M        38.0000                       :Last Index Value
STEP    .M        -0.1524                       :Frame Spacing
NULL    .         -999.2500                     :Absent Value
WELL    .         F/3-4                         :Well Name
FLD     .         APPRAISAL                     :Field Name
CNTY    .         NETHERLANDS                   :County
STAT    .         NORTH SEA                     :State
CTRY    .                                       :Country
LOC     .                                       :Location
API     .                                       :API Number
DATE    .                                       :Date
COMP    .         N.A.M.                        :Company Name
SRVC    .                                       :Service Company
~Other Information
GR RUN 1 FROM FDN SHIFTED +2M AS PER COMMENTS ON LOG HEADER 
~Curve Information
#MNEM   .UNITS    API CODE                       CURVE DESCRIPTION
#----   ------    --------                       -----------------
DEPT    .M                                      :1     Index curve
GR      .GAPI                                   :2     BHCFDN
DT      .US/F                                   :3     BHC   
RHOB    .G/CC                                   :4     FDN   
DRHO    .G/CC                                   :5     FDN   
NPHI    .PU                                     :6     FDN   
CALI    .IN                                     :7     FDN   
SP      .MV                                     :8     DLL   
LLS     .OHMM                                   :9     DLL   
LLD     .OHMM                                   :10    DLL   
MSFL    .OHMM                                   :11    DLL   
SN      .OHMM                                   :12    IEL   
ILD     .OHMM                                   :13    IEL   
~Ascii Log Data
# ...
    3150.1602     64.492325     71.857697      2.520936     -0.006102     10.013191      8.628891     54.522476      2.295975      2.709053   -999.250000   -999.250000   -999.250000
    3150.0078     62.677155     71.987610      2.522154     -0.007998     10.111349      8.612249     54.514915      2.476346      2.971177   -999.250000   -999.250000   -999.250000
    3149.8555     61.033302     70.678406      2.523823      0.001276      9.826803      8.592241     54.505547      2.670939      3.296009   -999.250000   -999.250000   -999.250000
    3149.7031     58.537437     68.587753      2.533854      0.007083      9.851517      8.571783     54.495476      2.902471      3.511205   -999.250000   -999.250000   -999.250000
    3149.5508     56.570961     67.311279      2.555861      0.039194     10.112001      8.556376     54.485397      3.028037      3.594421   -999.250000   -999.250000   -999.250000
    3149.3984     56.561005     65.922791      2.571369      0.026962     10.182634      8.543039     54.477379      3.072787      3.343160   -999.250000   -999.250000   -999.250000
    3149.2461     55.782967     64.984482      2.585747      0.010557      9.570410      8.534241     54.471840      2.769043      3.027381   -999.250000   -999.250000   -999.250000
    3149.0938     59.390175     64.764175      2.591869      0.017732      9.733002      8.540060     54.466293      2.441717      2.586569   -999.250000   -999.250000   -999.250000
    3148.9409     60.601097     64.708252      2.571113      0.013488     10.426994      8.545010     54.462326      2.135996      2.239904   -999.250000   -999.250000   -999.250000
    3148.7886     61.339752     66.371582      2.561661      0.018048     13.691956      8.549965     54.467865      1.737331      1.883532   -999.250000   -999.250000   -999.250000
    3148.6362     61.173264     67.942734      2.536279      0.022517     17.599995      8.557747     54.472183      1.606713      1.840287   -999.250000   -999.250000   -999.250000
    3148.4839     60.753166     70.874420      2.521808     -0.005289     19.720139      8.572798     54.480644      1.540863      1.799221   -999.250000   -999.250000   -999.250000
    3148.3315     59.116203     73.180161      2.545398     -0.001997     21.147648      8.587847     54.494354      1.493444      1.728154   -999.250000   -999.250000   -999.250000
    3148.1792     58.691818     74.302216      2.561547      0.004721     22.091587      8.604153     54.508057      1.473097      1.664009   -999.250000   -999.250000   -999.250000
    3148.0269     61.064499     75.029587      2.568625      0.010333     23.349674      8.577404     54.520203      1.455139      1.653279   -999.250000   -999.250000   -999.250000
    3147.8745     57.737419     75.459442      2.573042      0.015945     24.338921      8.550051     54.434616      1.446426      1.643049   -999.250000   -999.250000   -999.250000
    3147.7217     58.195343     76.250488      2.580988      0.021557     25.117435      8.542414     54.357880      1.488550      1.677941   -999.250000   -999.250000   -999.250000
    3147.5693     58.344879     76.692123      2.598952      0.027366     25.341885      8.535215     54.327751      1.519580      1.717392   -999.250000   -999.250000   -999.250000
    3147.4170     58.905258     76.800430      2.607002      0.027035     24.913223      8.526680     54.898407      1.501014      1.703543   -999.250000   -999.250000   -999.250000
    3147.2646     59.795372     76.868774      2.567771      0.012289     24.552158      8.532654     54.729958      1.481019      1.686314   -999.250000   -999.250000   -999.250000
    3147.1123     61.321579     76.663696      2.584432      0.018584     24.188423      8.539976     54.473450      1.461291      1.671735   -999.250000   -999.250000   -999.250000
    3146.9600     63.453705     76.004715      2.593021      0.022245     25.515236      8.547298     54.237534      1.438787      1.642684   -999.250000   -999.250000   -999.250000
    3146.8076     63.964691     76.387192      2.597654      0.012522     26.666649      8.552851     54.633003      1.415183      1.621277   -999.250000   -999.250000   -999.250000
    3146.6553     62.995155     76.759842      2.560995     -0.003471     27.490356      8.560406     55.076263      1.398059      1.693074   -999.250000   -999.250000   -999.250000
    3146.5029     60.628403     77.100342      2.545959     -0.009323     27.995148      8.567991     55.079887      1.455843      1.792046   -999.250000   -999.250000   -999.250000
    3146.3501     58.475990     77.420883      2.562778      0.003285     27.387012      8.552124     55.084198      1.602536      2.034901   -999.250000   -999.250000   -999.250000
    3146.1978     59.421013     77.530243      2.566180     -0.002116     26.172691      8.531012     55.226189      1.810503      2.238035   -999.250000   -999.250000   -999.250000
    3146.0454     61.771156     76.510406      2.568075      0.001523     23.481834      8.512980     55.461449      2.096534      2.683972   -999.250000   -999.250000   -999.250000
    3145.8931     60.638306     74.662094      2.567274      0.006038     19.439972      8.504230     55.611504      2.441014      3.123885   -999.250000   -999.250000   -999.250000
    3145.7407     59.984299     72.055313      2.559295      0.007671     16.763783      8.496008     55.416084      2.758697      3.351640   -999.250000   -999.250000   -999.250000
    3145.5884     61.002533     70.544205      2.569769      0.002562     13.998587      8.500824     55.307930      2.819351      3.423179   -999.250000   -999.250000   -999.250000
    3145.4360     62.459663     66.786758      2.592852      0.018944     12.454050      8.506062     55.542038      2.735747      3.441418   -999.250000   -999.250000   -999.250000
    3145.2837     64.762192     66.161240      2.604693      0.030675     11.215307      8.511290     55.730049      2.650813      3.008356   -999.250000   -999.250000   -999.250000
    3145.1313     67.602081     65.735229      2.594485      0.015753     11.021763      8.515915     55.915955      2.274466      2.523139   -999.250000   -999.250000   -999.250000
    3144.9785     67.409134     65.255630      2.619174      0.032636     13.836189      8.519949     55.826958      2.014130      2.083591   -999.250000   -999.250000   -999.250000
    3144.8262     66.983704     66.302643      2.606783      0.042987     15.518673      8.523989     55.739082      1.779055      1.904334   -999.250000   -999.250000   -999.250000
    3144.6738     73.388611     68.451996      2.580907      0.008462     18.310097      8.525396     55.651215      1.630830      1.803550   -999.250000   -999.250000   -999.250000
    3144.5215     77.734787     69.985291      2.590668      0.018073     21.271717      8.523169     55.617836      1.613407      1.798278   -999.250000   -999.250000   -999.250000
    3144.3691     81.242126     73.096115      2.566089      0.000738     22.100735      8.521944     55.667404      1.596280      1.793643   -999.250000   -999.250000   -999.250000
    3144.2168     83.765610     74.127594      2.582744      0.018066     23.756508      8.521326     55.697968      1.593335      1.797048   -999.250000   -999.250000   -999.250000
    3144.0645     86.873077     74.642014      2.601420      0.032192     25.117992      8.520760     55.763023      1.590409      1.800753   -999.250000   -999.250000   -999.250000
    3143.9121     88.872162     74.654663      2.605591      0.045650     24.668888      8.520195     55.846985      1.587815      1.860781   -999.250000   -999.250000   -999.250000
    3143.7593     87.394089     74.662674      2.571495      0.021155     23.684204      8.519920     55.930817      1.687856      1.942640   -999.250000   -999.250000   -999.250000
    3143.6069     83.694092     74.238007      2.576127      0.013528     22.102493      8.533911     56.014648      1.844243      2.227667   -999.250000   -999.250000   -999.250000
