# LAS format data
~Version Information
VERS.     2.00: CWLS LOG ASCII STANDARD - VERSION 2.0
WRAP.       NO: ONE LINE PER DEPTH STEP
~Well Information
#MNEM   .UNITS    DATA                           DESCRIPTION
#----   ------    ----                           -----------
STRT    .M        3156.8657                     :First Index Value
STOP    .M        38.0000                       :Last Index Value
STEP    .M        -0.1524                       :Frame Spacing
NULL    .         -999.2500                     :Absent Value
WELL    .         F/3-4                         :Well Name
FLD     .         APPRAISAL                     :Field Name
CNTY    .         NETHERLANDS                   :County
STAT    .         NORTH SEA                     :State
CTRY    .                                       :Country
LOC     .                                       :Location
API     .                                       :API Number
DATE    .                                       :Date
COMP    .         N.A.M.                        :Company Name
SRVC    .                                       :Service Company
~Other Information
GR RUN 1 FROM FDN SHIFTED +2M AS PER COMMENTS ON LOG HEADER 
~Curve Information
#MNEM   .UNITS    API CODE                       CURVE DESCRIPTION
#----   ------    --------                       -----------------
DEPT    .M                                      :1     Index curve
GR      .GAPI                                   :2     BHCFDN
DT      .US/F                                   :3     BHC   
RHOB    .G/CC                                   :4     FDN   
DRHO    .G/CC                                   :5     FDN   
NPHI    .PU                                     :6     FDN   
CALI    .IN                                     :7     FDN   
SP      .MV                                     :8     DLL   
LLS     .OHMM                                   :9     DLL   
LLD     .OHMM                                   :10    DLL   
MSFL    .OHMM                                   :11    DLL   
SN      .OHMM                                   :12    IEL   
ILD     .OHMM                                   :13    IEL   
~Ascii Log Data
# ...
    2265.0210     13.075903     64.846283      2.534366      0.052106   -999.250000     12.633665     49.201340      2.290481      1.524639      3.526104      1.693277      2.217505
    2264.8687     12.776058     64.675171      2.513901      0.046827   -999.250000     12.635674     49.134903      2.202915      1.455950      3.243923      1.699202      2.219443
    2264.7163     12.317190     64.849197      2.509793      0.041796   -999.250000     12.637587     49.094658      2.274859      1.406991      3.052951      1.707413      2.246291
    2264.5640     11.534401     64.435959      2.506299      0.037169   -999.250000     12.639894     49.089676      2.379283      1.514987      3.259388      1.714020      2.283532
    2264.4116     11.545626     64.903534      2.514792      0.031327   -999.250000     12.638279     49.084686      2.478132      1.612329      3.534589      1.722098      2.335454
    2264.2593     11.790487     65.504166      2.539693      0.062428   -999.250000     12.636322     49.034584      2.537468      1.693689      3.799111      1.728876      2.377535
    2264.1069     12.317387     64.676163      2.523543      0.059021   -999.250000     12.624342     48.903900      2.567803      1.776911      4.335271      1.731950      2.421385
    2263.9541     12.816465     66.853195      2.532701      0.053291   -999.250000     12.611643     48.757088      2.597164      1.739228      4.633990      1.734038      2.457431
    2263.8018     14.633152     66.318634      2.515397      0.046659   -999.250000     12.614285     48.760750      2.547329      1.708399      4.237352      1.733646      2.478096
    2263.6494     16.941444     67.534607      2.530568      0.048386   -999.250000     12.617231     48.764923      2.500531      1.607151      3.872139      1.733153      2.485199
    2263.4971     17.584534     70.442032      2.519675      0.044917   -999.250000     12.619030     48.769096      2.465925      1.578975      3.694608      1.732659      2.489015
    2263.3447     16.018578     71.416641      2.515721      0.042795   -999.250000     12.610361     48.776314      2.445567      1.692631      3.547905      1.732098      2.460938
    2263.1924     14.268501     71.792313      2.500284      0.026678   -999.250000     12.604120     48.786949      2.432631      1.723762      3.481439      1.738000      2.420220
    2263.0400     14.358479     72.136993      2.487880      0.043465   -999.250000     12.600471     48.797562      2.425258      1.730776      3.715304      1.744859      2.364733
    2262.8877     16.537933     71.426620      2.481526      0.035688   -999.250000     12.607414     48.869125      2.417907      1.737818      3.645494      1.751755      2.331666
    2262.7349     16.286320     70.597870      2.492081      0.047399   -999.250000     12.612314     49.009537      2.382638      1.740285      3.595333      1.758667      2.302585
    2262.5825     14.706152     70.392929      2.478159      0.030070   -999.250000     12.618134     49.149940      2.316591      1.652471      3.594222      1.761418      2.298272
    2262.4302     13.260109     69.861618      2.473652      0.014259   -999.250000     12.621536     49.225098      2.252375      1.578281      3.714147      1.762325      2.334917
    2262.2778     12.162542     69.015732      2.493358      0.025880   -999.250000     12.625732     49.124802      2.102052      1.461139      3.794888      1.763235      2.352829
    2262.1255     11.841480     68.084610      2.501401      0.036432   -999.250000     12.628653     49.056404      1.894828      1.333932      3.224210      1.763499      2.373702
    2261.9731     11.520931     67.243317      2.493954      0.038834   -999.250000     12.617252     49.006317      1.684965      1.210252      2.836216      1.744182      2.388195
    2261.8208     11.421274     66.742020      2.467474      0.020788   -999.250000     12.608501     49.075562      1.490626      1.047891      1.967551      1.732973      2.404507
    2261.6685     11.828238     66.011139      2.475459      0.025659   -999.250000     12.598097     49.130119      1.381487      0.909868      1.712194      1.724310      2.431298
    2261.5161     12.429644     65.340195      2.478414      0.028746   -999.250000     12.580715     49.192192      1.318441      0.842235      1.626416      1.715441      2.469014
    2261.3633     13.380869     65.798645      2.471339      0.032050   -999.250000     12.559322     49.315002      1.470308      0.914659      1.727962      1.708231      2.491189
    2261.2109     14.437311     66.326797      2.479365      0.036005   -999.250000     12.537930     49.457664      1.546790      1.022249      1.926050      1.699376      2.512573
    2261.0586     15.294884     66.021500      2.471778      0.038934   -999.250000     12.519352     49.600105      1.603202      1.119656      2.133091      1.687766      2.531662
    2260.9062     14.169809     65.528503      2.478954      0.036763   -999.250000     12.508867     49.672035      1.633205      1.106613      2.286799      1.672705      2.540696
    2260.7539     12.934793     66.512970      2.483613      0.035558   -999.250000     12.498381     49.712151      1.543520      1.091042      2.159749      1.654785      2.533160
    2260.6016     14.642546     67.126541      2.495204      0.041602   -999.250000     12.487896     49.752274      1.564999      1.080194      2.133703      1.640271      2.530807
    2260.4492     12.834560     68.433197      2.507469      0.034920   -999.250000     12.483292     49.783134      1.586954      1.132371      2.115641      1.622227      2.507937
    2260.2969     11.257229     69.463287      2.522153      0.048920   -999.250000     12.518272     49.850159      1.609510      1.176867      2.077645      1.608398      2.473668
    2260.1445     12.810345     67.846741      2.528442      0.066482   -999.250000     12.544893     49.904549      1.632740      1.150483      2.046380      1.559510      2.306180
    2259.9917     14.190323     67.653091      2.492209      0.041254   -999.250000     12.533010     49.958931      1.655354      1.117675      2.017167      1.509815      2.133500
    2259.8394     16.138309     67.894287      2.498130      0.027466   -999.250000     12.518358     49.997459      1.771756      1.177684      1.989458      1.475245      1.949323
    2259.6870     17.308826     67.275635      2.488067      0.018430   -999.250000     12.512205     49.972954      1.896740      1.297292      2.128027      1.431187      1.817623
    2259.5347     15.516754     66.604630      2.487428      0.024016   -999.250000     12.517654     49.955070      2.079823      1.463247      2.739878      1.402475      1.718785
    2259.3823     13.523186     65.958099      2.498606      0.016636   -999.250000     12.521099     49.871712      2.305393      1.683696      3.471326      1.365432      1.647550
    2259.2300     14.512394     67.836990      2.511728      0.008360   -999.250000     12.524975     49.792656      2.230369      1.615238      4.083119      1.364146      1.587433
    2259.0776     15.248007     68.552719      2.503206     -0.005010   -999.250000     12.534170     49.725983      2.110873      1.512966      3.599013      1.362672      1.532148
    2258.9253     15.783724     70.702545      2.516302      0.007132   -999.250000     12.544661     49.685860      1.974359      1.414791      2.527768      1.361351      1.503339
    2258.7729     17.378860     72.136215      2.538342      0.018330   -999.250000     12.555151     49.645737      1.891328      1.328537      2.361862      1.370928      1.495871
    2258.6201     16.845184     69.697433      2.539948      0.013472   -999.250000     12.565542     49.613976      2.067152      1.426106      2.546452      1.379659      1.536399
    2258.4678     16.304981     68.263153      2.526323      0.010995   -999.250000     12.592371     49.477661      2.223593      1.519967      2.897578      1.388588      1.589500
