# LAS format data
~Version Information
VERS.     2.00: CWLS LOG ASCII STANDARD - VERSION 2.0
WRAP.       NO: ONE LINE PER DEPTH STEP
~Well Information
#MNEM   .UNITS    DATA                           DESCRIPTION
#----   ------    ----                           -----------
STRT    .M        3156.8657                     :First Index Value
STOP    .M        38.0000                       :Last Index Value
STEP    .M        -0.1524                       :Frame Spacing
NULL    .         -999.2500                     :Absent Value
WELL    .         F/3-4                         :Well Name
FLD     .         APPRAISAL                     :Field Name
CNTY    .         NETHERLANDS                   :County
STAT    .         NORTH SEA                     :State
CTRY    .                                       :Country
LOC     .                                       :Location
API     .                                       :API Number
DATE    .                                       :Date
COMP    .         N.A.M.                        :Company Name
SRVC    .                                       :Service Company
~Other Information
GR RUN 1 FROM FDN SHIFTED +2M AS PER COMMENTS ON LOG HEADER 
~Curve Information
#MNEM   .UNITS    API CODE                       CURVE DESCRIPTION
#----   ------    --------                       -----------------
DEPT    .M                                      :1     Index curve
GR      .GAPI                                   :2     BHCFDN
DT      .US/F                                   :3     BHC   
RHOB    .G/CC                                   :4     FDN   
DRHO    .G/CC                                   :5     FDN   
NPHI    .PU                                     :6     FDN   
CALI    .IN                                     :7     FDN   
SP      .MV                                     :8     DLL   
LLS     .OHMM                                   :9     DLL   
LLD     .OHMM                                   :10    DLL   
MSFL    .OHMM                                   :11    DLL   
SN      .OHMM                                   :12    IEL   
ILD     .OHMM                                   :13    IEL   
~Ascii Log Data
# ...
    2620.4180     86.237762    105.777405      2.415778      0.037402   -999.250000     12.823753     46.747002      0.739768      0.179421      1.070231   -999.250000   -999.250000
    2620.2656     89.357971    106.805237      2.413941      0.033765   -999.250000     12.615063     46.831070      0.726133      0.179343      1.061083   -999.250000   -999.250000
    2620.1133     90.217468    107.834839      2.425928      0.052858   -999.250000     12.579889     46.921326      0.721052      0.179265      1.102470   -999.250000   -999.250000
    2619.9609     87.282990    109.036667      2.420136      0.057340   -999.250000     12.657387     46.911232      0.716428      0.179111      1.116735   -999.250000   -999.250000
    2619.8081     82.898834    110.422180      2.411840      0.032882   -999.250000     12.687408     46.900314      0.711833      0.178928      1.086967   -999.250000   -999.250000
    2619.6558     81.391632    111.197250      2.417720      0.040322   -999.250000     12.712324     46.888702      0.702393      0.178745      1.078656   -999.250000   -999.250000
    2619.5034     83.127167    112.537949      2.421916      0.050343   -999.250000     12.685194     46.910385      0.691073      0.178568      1.108554   -999.250000   -999.250000
    2619.3511     81.976700    113.490555      2.403310      0.045149   -999.250000     12.660767     46.933517      0.679953      0.179110      1.024535   -999.250000   -999.250000
    2619.1987     86.997620    112.199371      2.419288      0.059288   -999.250000     12.641937     46.956650      0.669013      0.179636      0.949203   -999.250000   -999.250000
    2619.0464     87.584152    111.685455      2.427732      0.067614   -999.250000     12.556616     46.965401      0.661011      0.180225      0.914969   -999.250000   -999.250000
    2618.8940     82.701721    110.951080      2.408897      0.044614   -999.250000     12.552576     46.691711      0.654554      0.180445      0.936658   -999.250000   -999.250000
    2618.7417     86.033051    109.248047      2.396833      0.030592   -999.250000     12.547543     46.525688      0.652840      0.180696      0.960839   -999.250000   -999.250000
    2618.5889     83.474411    104.702133      2.428749      0.022271   -999.250000     12.542486     46.365677      0.671622      0.180856      0.971647   -999.250000   -999.250000
    2618.4365     80.915802    103.745621      2.521733      0.036545   -999.250000     12.552639     46.166168      0.694427      0.180144      0.984429   -999.250000   -999.250000
    2618.2842     79.718719    103.358566      2.517700      0.031035   -999.250000     12.562794     46.365685      0.722978      0.179623      1.083950   -999.250000   -999.250000
    2618.1318     84.411209    103.092224      2.513510      0.065277   -999.250000     12.572947     46.629997      0.739141      0.179349      1.285180   -999.250000   -999.250000
    2617.9795     82.626633    105.731415      2.483716      0.056574   -999.250000     12.583101     46.779053      0.743587      0.179251      1.403785   -999.250000   -999.250000
    2617.8271     82.007812    105.099258      2.446485      0.046063   -999.250000     12.593254     46.860352      0.747413      0.179153      1.072644   -999.250000   -999.250000
    2617.6748     81.428391    104.426300      2.419077      0.036504   -999.250000     12.601025     46.941780      0.755228      0.179048      1.039112   -999.250000   -999.250000
    2617.5225     80.958511    105.063217      2.427299      0.023788   -999.250000     12.605141     46.992073      0.762135      0.178938      1.102347   -999.250000   -999.250000
    2617.3701     83.820602    106.463974      2.432971      0.045977   -999.250000     12.609251     46.961044      0.766979      0.178829      1.139782   -999.250000   -999.250000
    2617.2173     86.378281    108.278778      2.407392      0.039682   -999.250000     12.625828     46.938583      0.743563      0.178707      1.145219   -999.250000   -999.250000
    2617.0649     85.192230    110.430969      2.417572      0.057888   -999.250000     12.656765     46.912346      0.729686      0.178192      1.087669   -999.250000   -999.250000
    2616.9126     82.809219    109.813736      2.399045      0.036739   -999.250000     12.682594     46.959496      0.680062      0.177612      1.037187   -999.250000   -999.250000
    2616.7603     83.197540    108.212021      2.411301      0.029968   -999.250000     12.690519     47.016075      0.661949      0.177034      0.985859   -999.250000   -999.250000
    2616.6079     83.511993    106.344757      2.429814      0.037040   -999.250000     12.697313     47.082893      0.696181      0.176500      0.965858   -999.250000   -999.250000
    2616.4556     77.854752    104.063446      2.441488      0.023920   -999.250000     12.699163     47.090187      0.713255      0.175729      1.011833   -999.250000   -999.250000
    2616.3032     76.657059    101.758652      2.447233      0.017639   -999.250000     12.693947     47.099113      0.727036      0.175014      1.051383   -999.250000   -999.250000
    2616.1509     74.168610    101.062943      2.439169      0.009577   -999.250000     12.690924     47.108017      0.741106      0.174454      1.099134   -999.250000   -999.250000
    2615.9985     71.774094     99.719116      2.437050      0.021034   -999.250000     12.687904     47.123207      0.758419      0.180477      1.154266   -999.250000   -999.250000
    2615.8457     68.792313     98.023880      2.476315      0.030211   -999.250000     12.679497     47.145172      0.783987      0.186400      1.238371   -999.250000   -999.250000
    2615.6934     68.674866     96.343445      2.496252      0.041038   -999.250000     12.662170     47.167145      0.803984      0.195346      1.275943   -999.250000   -999.250000
    2615.5410     71.771942     96.319870      2.509510      0.046631   -999.250000     12.644815     47.189217      0.829404      0.206452      1.327565   -999.250000   -999.250000
    2615.3887     69.494507     97.811447      2.494223      0.039363   -999.250000     12.627489     47.236130      0.835255      0.214984      1.374717   -999.250000   -999.250000
    2615.2363     71.652420     98.959015      2.482031      0.043838   -999.250000     12.613163     47.283195      0.796376      0.193350      1.309780   -999.250000   -999.250000
    2615.0840     71.832748     99.849121      2.456828      0.048530   -999.250000     12.606541     47.330261      0.802289      0.201965      1.202921   -999.250000   -999.250000
    2614.9316     72.003204     98.583099      2.451055      0.037230   -999.250000     12.601061     47.398521      0.807604      0.212651      1.109556   -999.250000   -999.250000
    2614.7793     73.504501     94.871887      2.468000      0.043361   -999.250000     12.622177     47.475334      0.828674      0.225234      1.205642   -999.250000   -999.250000
    2614.6270     69.325684     93.262039      2.470696      0.045557   -999.250000     12.642670     47.552147      0.874167      0.241453      1.313999   -999.250000   -999.250000
    2614.4741     70.362518     93.855225      2.453367      0.038855   -999.250000     12.665789     47.592522      0.922158      0.257200      1.419656   -999.250000   -999.250000
    2614.3218     73.314209     96.573364      2.448673      0.036898   -999.250000     12.666525     47.571609      0.937126      0.239002      1.481362   -999.250000   -999.250000
    2614.1694     77.795624    101.791321      2.461657      0.053938   -999.250000     12.667370     47.557449      0.856301      0.226198      1.376221   -999.250000   -999.250000
    2614.0171     81.832779    104.314331      2.434758      0.055381   -999.250000     12.668215     47.544098      0.801753      0.201537      1.260201   -999.250000   -999.250000
    2613.8647     79.696243    102.899750      2.415305      0.033022   -999.250000     12.669044     47.375755      0.739611      0.183681      1.141946   -999.250000   -999.250000
