# LAS format data
~Version Information
VERS.     2.00: CWLS LOG ASCII STANDARD - VERSION 2.0
WRAP.       NO: ONE LINE PER DEPTH STEP
~Well Information
#MNEM   .UNITS    DATA                           DESCRIPTION
#----   ------    ----                           -----------
STRT    .M        3156.8657                     :First Index Value
STOP    .M        38.0000                       :Last Index Value
STEP    .M        -0.1524                       :Frame Spacing
NULL    .         -999.2500                     :Absent Value
WELL    .         F/3-4                         :Well Name
FLD     .         APPRAISAL                     :Field Name
CNTY    .         NETHERLANDS                   :County
STAT    .         NORTH SEA                     :State
CTRY    .                                       :Country
LOC     .                                       :Location
API     .                                       :API Number
DATE    .                                       :Date
COMP    .         N.A.M.                        :Company Name
SRVC    .                                       :Service Company
~Other Information
GR RUN 1 FROM FDN SHIFTED +2M AS PER COMMENTS ON LOG HEADER 
~Curve Information
#MNEM   .UNITS    API CODE                       CURVE DESCRIPTION
#----   ------    --------                       -----------------
DEPT    .M                                      :1     Index curve
GR      .GAPI                                   :2     BHCFDN
DT      .US/F                                   :3     BHC   
RHOB    .G/CC                                   :4     FDN   
DRHO    .G/CC                                   :5     FDN   
NPHI    .PU                                     :6     FDN   
CALI    .IN                                     :7     FDN   
SP      .MV                                     :8     DLL   
LLS     .OHMM                                   :9     DLL   
LLD     .OHMM                                   :10    DLL   
MSFL    .OHMM                                   :11    DLL   
SN      .OHMM                                   :12    IEL   
ILD     .OHMM                                   :13    IEL   
~Ascii Log Data
# ...
    1554.2275     45.272987    166.380920      1.918925      0.005026   -999.250000     13.817236     51.731812      0.325037      0.183924      0.165577   -999.250000   -999.250000
    1554.0752     43.807167    166.545044      2.001238      0.008065   -999.250000     15.164040     51.824371      0.346181      0.184250      0.164618   -999.250000   -999.250000
    1553.9229     44.226044    166.020782      2.015409     -0.008000   -999.250000     14.596781     51.911476      0.363419      0.184526      0.211578   -999.250000   -999.250000
    1553.7703     45.331718    165.304016      2.027546     -0.000412   -999.250000     14.013737     51.994644      0.374955      0.184869      0.257405   -999.250000   -999.250000
    1553.6179     45.734978    165.557648      2.040855     -0.007195   -999.250000     13.568419     52.090752      0.365989      0.185167      0.287235   -999.250000   -999.250000
    1553.4656     43.773399    166.068695      2.072852      0.008126   -999.250000     12.918215     52.273621      0.359591      0.185465      0.277583   -999.250000   -999.250000
    1553.3132     42.336731    165.702423      2.000291      0.003771   -999.250000     12.607559     52.498444      0.356814      0.185722      0.273089   -999.250000   -999.250000
    1553.1606     42.099251    165.471283      1.984841      0.011512   -999.250000     12.405964     52.336411      0.355920      0.185472      0.286501   -999.250000   -999.250000
    1553.0083     45.973335    165.399750      2.001595      0.018316   -999.250000     13.141514     52.157906      0.355029      0.185253      0.286572   -999.250000   -999.250000
    1552.8560     47.576576    166.032654      2.014516      0.028795   -999.250000     12.895561     52.042870      0.354140      0.185004      0.265078   -999.250000   -999.250000
    1552.7036     49.530746    165.409363      2.012965      0.020464   -999.250000     12.549534     51.920685      0.353815      0.185125      0.253466   -999.250000   -999.250000
    1552.5513     51.561516    165.432617      2.022541      0.013595   -999.250000     12.268448     51.794968      0.356594      0.185265      0.249677   -999.250000   -999.250000
    1552.3987     51.165222    165.843048      2.032241      0.015329   -999.250000     12.240391     51.755760      0.368842      0.185404      0.263866   -999.250000   -999.250000
    1552.2463     49.630241    166.578918      2.033276      0.019717   -999.250000     12.618423     51.715385      0.384856      0.185552      0.246081   -999.250000   -999.250000
    1552.0940     47.282867    167.110992      2.053315      0.032222   -999.250000     13.587759     51.667839      0.377247      0.185724      0.222473   -999.250000   -999.250000
    1551.9417     45.579758    167.208221      2.050986      0.040825   -999.250000     13.874041     51.622681      0.370286      0.185896      0.206801   -999.250000   -999.250000
    1551.7891     45.492905    166.436646      2.044432      0.037755   -999.250000     13.239731     51.567749      0.366191      0.186068      0.187475   -999.250000   -999.250000
    1551.6367     47.432632    165.944153      1.992686      0.022190   -999.250000     13.172897     51.512779      0.362768      0.186190      0.169943   -999.250000   -999.250000
    1551.4844     47.487175    165.848724      1.915791      0.014862   -999.250000     13.200508     51.463211      0.372324      0.186256      0.180570   -999.250000   -999.250000
    1551.3320     46.148476    166.139709      1.901273      0.003399   -999.250000     13.212416     51.416420      0.380797      0.186323      0.230706   -999.250000   -999.250000
    1551.1794     44.542130    166.627991      2.000071     -0.005956   -999.250000     12.751770     51.363625      0.391039      0.186583      0.287463   -999.250000   -999.250000
    1551.0271     42.893173    166.805145      2.000033     -0.000792   -999.250000     12.522156     51.316032      0.402310      0.187230      0.281657   -999.250000   -999.250000
    1550.8748     42.556885    166.392731      2.047744      0.008982   -999.250000     12.471008     51.261444      0.408303      0.187881      0.274701   -999.250000   -999.250000
    1550.7224     41.355438    166.041046      2.059259      0.019456   -999.250000     12.500359     51.230064      0.379342      0.188168      0.265193   -999.250000   -999.250000
    1550.5701     40.194046    165.793884      2.062521      0.015798   -999.250000     12.527885     51.489494      0.366076      0.187459      0.245546   -999.250000   -999.250000
    1550.4175     37.909538    165.410919      2.063818      0.003481   -999.250000     12.457941     51.679672      0.353264      0.187017      0.216221   -999.250000   -999.250000
    1550.2651     37.246437    165.057251      2.050550      0.008523   -999.250000     12.409695     51.875862      0.347513      0.186575      0.202282   -999.250000   -999.250000
    1550.1128     36.320839    164.907806      2.046192      0.019353   -999.250000     12.381908     52.072327      0.362147      0.186258      0.224648   -999.250000   -999.250000
    1549.9604     37.164207    164.769684      2.057373      0.026787   -999.250000     12.497721     52.310913      0.377049      0.186016      0.253966   -999.250000   -999.250000
    1549.8079     38.400932    164.421448      2.068302      0.051775   -999.250000     12.537066     52.130409      0.390723      0.185775      0.277334   -999.250000   -999.250000
    1549.6555     40.236938    163.963928      2.070750      0.047005   -999.250000     12.381554     51.970627      0.400904      0.185628      0.285934   -999.250000   -999.250000
    1549.5032     44.001770    163.145294      2.059392      0.042628   -999.250000     12.289331     51.861984      0.411359      0.185671      0.296829   -999.250000   -999.250000
    1549.3508     45.828644    162.508331      2.054491      0.045670   -999.250000     12.207413     51.728203      0.414816      0.185702      0.283108   -999.250000   -999.250000
    1549.1982     46.749428    162.441956      2.052142      0.024559   -999.250000     12.126812     51.852310      0.389464      0.185733      0.263294   -999.250000   -999.250000
    1549.0459     46.940498    162.437531      2.040864      0.013482   -999.250000     12.106628     52.013817      0.372998      0.185844      0.279802   -999.250000   -999.250000
    1548.8936     44.845924    161.599640      2.035809      0.009105   -999.250000     12.103182     52.124855      0.365919      0.186026      0.295792   -999.250000   -999.250000
    1548.7412     43.367752    161.397919      2.046971      0.014877   -999.250000     12.106094     52.049843      0.395945      0.186208      0.312195   -999.250000   -999.250000
    1548.5889     40.269585    162.246185      2.039166      0.011334   -999.250000     12.108030     51.992683      0.413703      0.186391      0.332600   -999.250000   -999.250000
    1548.4363     38.257607    162.400421      2.038762      0.008934   -999.250000     12.110575     51.975563      0.438279      0.186555      0.344637   -999.250000   -999.250000
    1548.2839     40.600624    162.263306      2.050312      0.025795   -999.250000     12.193296     52.194885      0.457699      0.186485      0.339979   -999.250000   -999.250000
    1548.1316     38.292747    162.867004      2.068111      0.030086   -999.250000     12.278231     52.341995      0.428797      0.186421      0.338835   -999.250000   -999.250000
    1547.9792     36.141396    162.747650      2.064748      0.037032   -999.250000     12.399441     52.355423      0.407183      0.186358      0.297966   -999.250000   -999.250000
    1547.8267     34.946701    163.577576      1.998759      0.046949   -999.250000     12.535408     52.371063      0.381899      0.186285      0.217356   -999.250000   -999.250000
    1547.6743     34.816315    163.214722      1.931274      0.019995   -999.250000     13.027782     52.459755      0.375738      0.186762      0.197479   -999.250000   -999.250000
