# LAS format data
~Version Information
VERS.     2.00: CWLS LOG ASCII STANDARD - VERSION 2.0
WRAP.       NO: ONE LINE PER DEPTH STEP
~Well Information
#MNEM   .UNITS    DATA                           DESCRIPTION
#----   ------    ----                           -----------
STRT    .M        3156.8657                     :First Index Value
STOP    .M        38.0000                       :Last Index Value
STEP    .M        -0.1524                       :Frame Spacing
NULL    .         -999.2500                     :Absent Value
WELL    .         F/3-4                         :Well Name
FLD     .         APPRAISAL                     :Field Name
CNTY    .         NETHERLANDS                   :County
STAT    .         NORTH SEA                     :State
CTRY    .                                       :Country
LOC     .                                       :Location
API     .                                       :API Number
DATE    .                                       :Date
COMP    .         N.A.M.                        :Company Name
SRVC    .                                       :Service Company
~Other Information
GR RUN 1 FROM FDN SHIFTED +2M AS PER COMMENTS ON LOG HEADER 
~Curve Information
#MNEM   .UNITS    API CODE                       CURVE DESCRIPTION
#----   ------    --------                       -----------------
DEPT    .M                                      :1     Index curve
GR      .GAPI                                   :2     BHCFDN
DT      .US/F                                   :3     BHC   
RHOB    .G/CC                                   :4     FDN   
DRHO    .G/CC                                   :5     FDN   
NPHI    .PU                                     :6     FDN   
CALI    .IN                                     :7     FDN   
SP      .MV                                     :8     DLL   
LLS     .OHMM                                   :9     DLL   
LLD     .OHMM                                   :10    DLL   
MSFL    .OHMM                                   :11    DLL   
SN      .OHMM                                   :12    IEL   
ILD     .OHMM                                   :13    IEL   
~Ascii Log Data
# ...
    1366.4707     67.172501    142.224670      2.044659      0.021841   -999.250000     18.239670     23.502922      0.697937      0.597830      0.847201   -999.250000   -999.250000
    1366.3184     65.674103    142.306366      2.036368      0.008798   -999.250000     18.243561     23.495049      0.697716      0.602509      0.886914   -999.250000   -999.250000
    1366.1660     67.413635    142.828735      2.035768      0.011464   -999.250000     18.247871     23.487644      0.697494      0.607645      0.904791   -999.250000   -999.250000
    1366.0137     66.338562    143.310272      2.043651      0.012797   -999.250000     18.248058     23.502792      0.697400      0.610624      0.916881   -999.250000   -999.250000
    1365.8611     69.622147    143.572540      2.044929      0.008674   -999.250000     18.248268     23.517899      0.705335      0.612718      0.927006   -999.250000   -999.250000
    1365.7087     68.852524    144.029541      2.039945      0.001153   -999.250000     18.248390     23.554901      0.710424      0.614819      0.935628   -999.250000   -999.250000
    1365.5564     66.793152    144.758057      2.033628     -0.004813   -999.250000     18.223820     23.594067      0.719862      0.616409      0.942395   -999.250000   -999.250000
    1365.4041     64.496475    144.860138      2.044641      0.002127   -999.250000     18.210632     23.633266      0.732334      0.646176      0.934394   -999.250000   -999.250000
    1365.2515     67.196045    144.210480      2.048486      0.007944   -999.250000     18.204601     23.648079      0.737057      0.621735      0.926430   -999.250000   -999.250000
    1365.0991     64.269409    142.585419      2.044126      0.004362   -999.250000     18.197750     23.538139      0.717845      0.600028      0.918540   -999.250000   -999.250000
    1364.9468     67.476624    141.321808      2.048627      0.008910   -999.250000     18.204651     23.471222      0.710993      0.573208      0.912817   -999.250000   -999.250000
    1364.7944     71.729568    140.442902      2.053915      0.012349   -999.250000     18.212658     23.272079      0.706397      0.592372      0.915263   -999.250000   -999.250000
    1364.6418     69.855179    140.384216      2.063742      0.016125   -999.250000     18.218616     23.075459      0.703416      0.606642      0.916951   -999.250000   -999.250000
    1364.4895     69.342880    141.498352      2.068381      0.011371   -999.250000     18.207111     22.966362      0.712132      0.617243      0.940199   -999.250000   -999.250000
    1364.3372     70.914688    142.956543      2.079956      0.019283   -999.250000     18.197948     22.976837      0.718671      0.624123      0.963161   -999.250000   -999.250000
    1364.1848     71.364288    144.001526      2.070203      0.025063   -999.250000     18.190914     22.988842      0.725789      0.614943      0.973778   -999.250000   -999.250000
    1364.0325     65.789230    144.455536      2.064529      0.021326   -999.250000     18.190159     22.937855      0.718874      0.601244      0.985504   -999.250000   -999.250000
    1363.8799     65.250916    144.476044      2.057577      0.025477   -999.250000     18.189400     22.988094      0.711445      0.609700      0.992848   -999.250000   -999.250000
    1363.7275     69.827530    143.980499      2.050733      0.013927   -999.250000     18.188656     23.048592      0.702979      0.614135      0.971680   -999.250000   -999.250000
    1363.5752     68.159210    143.460144      2.043465      0.008248   -999.250000     18.172756     23.137768      0.697662      0.582419      0.958396   -999.250000   -999.250000
    1363.4229     67.580627    143.284851      2.033008      0.003489   -999.250000     18.157181     23.226303      0.691448      0.610575      0.947373   -999.250000   -999.250000
    1363.2703     68.359833    143.491058      2.023252      0.021163   -999.250000     18.144661     23.314770      0.687411      0.571266      0.941119   -999.250000   -999.250000
    1363.1179     70.378311    143.952637      2.040761      0.034689   -999.250000     18.135941     23.403240      0.702857      0.592272      0.940216   -999.250000   -999.250000
    1362.9656     68.529587    144.441589      2.041549      0.037898   -999.250000     18.128723     23.496990      0.705154      0.597743      0.961043   -999.250000   -999.250000
    1362.8132     71.814545    144.788330      2.035231      0.020256   -999.250000     18.135040     23.596661      0.707456      0.600712      0.969442   -999.250000   -999.250000
    1362.6606     72.426941    144.954681      2.040553      0.028006   -999.250000     18.141727     23.667980      0.709768      0.598139      0.978729   -999.250000   -999.250000
    1362.5083     73.789032    145.150330      2.025496      0.012161   -999.250000     18.142879     23.393108      0.710525      0.596384      0.981507   -999.250000   -999.250000
    1362.3560     70.561920    145.822510      2.026678      0.004987   -999.250000     18.144394     23.132294      0.701276      0.594924      0.960102   -999.250000   -999.250000
    1362.2036     66.996277    145.787445      2.025128      0.008502   -999.250000     18.145908     23.234119      0.695809      0.584943      0.945300   -999.250000   -999.250000
    1362.0513     69.202896    146.070038      2.044589      0.020094   -999.250000     18.147160     23.364567      0.690379      0.576515      0.929330   -999.250000   -999.250000
    1361.8987     67.306366    146.626556      2.046000      0.015181   -999.250000     18.139469     23.494907      0.684784      0.568215      0.919917   -999.250000   -999.250000
    1361.7463     66.604752    146.810852      2.039391      0.012616   -999.250000     18.132931     23.545143      0.679162      0.565468      0.914146   -999.250000   -999.250000
    1361.5940     68.858841    147.666992      2.032547      0.009036   -999.250000     18.130508     23.476860      0.673582      0.573041      0.911252   -999.250000   -999.250000
    1361.4417     67.595505    148.135406      2.030175      0.012224   -999.250000     18.162392     23.409340      0.668052      0.575340      0.917543   -999.250000   -999.250000
    1361.2891     66.093979    148.155334      2.035501      0.013819   -999.250000     18.179478     23.293888      0.664678      0.543118      0.922538   -999.250000   -999.250000
    1361.1367     65.584366    148.569855      2.033557      0.009224   -999.250000     18.207882     23.197399      0.662415      0.536616      0.925779   -999.250000   -999.250000
    1360.9844     70.653900    148.678406      2.063486      0.034090   -999.250000     18.216534     23.093094      0.660158      0.582217      0.930112   -999.250000   -999.250000
    1360.8320     71.194229    148.474121      2.040928      0.035266   -999.250000     18.227001     23.003563      0.657769      0.564266      0.923306   -999.250000   -999.250000
    1360.6794     67.986038    148.814362      2.034530      0.011450   -999.250000     18.214546     22.923145      0.654423      0.543344      0.915878   -999.250000   -999.250000
    1360.5271     65.245865    148.621765      2.071251      0.028735   -999.250000     18.202412     22.968109      0.650874      0.527061      0.908505   -999.250000   -999.250000
    1360.3748     60.560478    148.727966      2.075635      0.031947   -999.250000     18.196274     23.008919      0.647341      0.523408      0.904137   -999.250000   -999.250000
    1360.2224     58.475883    148.707825      2.072912      0.026811   -999.250000     18.200562     23.038433      0.643830      0.521065      0.903916   -999.250000   -999.250000
    1360.0701     57.469788    148.696167      2.067379      0.031821   -999.250000     18.203434     23.058086      0.642854      0.560145      0.903710   -999.250000   -999.250000
    1359.9175     61.899200    149.031281      2.067156      0.038553   -999.250000     18.204700     23.077724      0.669899      0.538234      0.912569   -999.250000   -999.250000
