# LAS format data
~Version Information
VERS.     2.00: CWLS LOG ASCII STANDARD - VERSION 2.0
WRAP.       NO: ONE LINE PER DEPTH STEP
~Well Information
#MNEM   .UNITS    DATA                           DESCRIPTION
#----   ------    ----                           -----------
STRT    .M        3156.8657                     :First Index Value
STOP    .M        38.0000                       :Last Index Value
STEP    .M        -0.1524                       :Frame Spacing
NULL    .         -999.2500                     :Absent Value
WELL    .         F/3-4                         :Well Name
FLD     .         APPRAISAL                     :Field Name
CNTY    .         NETHERLANDS                   :County
STAT    .         NORTH SEA                     :State
CTRY    .                                       :Country
LOC     .                                       :Location
API     .                                       :API Number
DATE    .                                       :Date
COMP    .         N.A.M.                        :Company Name
SRVC    .                                       :Service Company
~Other Information
GR RUN 1 FROM FDN SHIFTED +2M AS PER COMMENTS ON LOG HEADER 
~Curve Information
#MNEM   .UNITS    API CODE                       CURVE DESCRIPTION
#----   ------    --------                       -----------------
DEPT    .M                                      :1     Index curve
GR      .GAPI                                   :2     BHCFDN
DT      .US/F                                   :3     BHC   
RHOB    .G/CC                                   :4     FDN   
DRHO    .G/CC                                   :5     FDN   
NPHI    .PU                                     :6     FDN   
CALI    .IN                                     :7     FDN   
SP      .MV                                     :8     DLL   
LLS     .OHMM                                   :9     DLL   
LLD     .OHMM                                   :10    DLL   
MSFL    .OHMM                                   :11    DLL   
SN      .OHMM                                   :12    IEL   
ILD     .OHMM                                   :13    IEL   
~Ascii Log Data
# ...
    2439.3667     74.160233     95.394348      2.406616      0.024040   -999.250000     12.808493     45.127594      0.926514      0.291584      1.395656   -999.250000   -999.250000
    2439.2144     70.958359     95.129013      2.438358      0.037529   -999.250000     12.877892     45.106880      0.910636      0.286041      1.372724   -999.250000   -999.250000
    2439.0620     70.074799     96.747330      2.432310      0.033489   -999.250000     12.830784     45.081886      0.896044      0.280912      1.350527   -999.250000   -999.250000
    2438.9097     72.951859     97.915176      2.443931      0.041913   -999.250000     12.801010     45.049881      0.882942      0.275827      1.295924   -999.250000   -999.250000
    2438.7573     70.304047     97.734100      2.446767      0.051795   -999.250000     12.825930     45.017830      0.868924      0.264511      1.278163   -999.250000   -999.250000
    2438.6045     69.409912     98.143082      2.459055      0.063273   -999.250000     12.920519     44.990585      0.854082      0.254332      1.371866   -999.250000   -999.250000
    2438.4521     71.205368     98.445343      2.434292      0.044759   -999.250000     13.071650     44.972527      0.838099      0.272587      1.277144   -999.250000   -999.250000
    2438.2998     68.718430     97.722702      2.424286      0.027782   -999.250000     13.032206     44.954468      0.825005      0.277166      1.159295   -999.250000   -999.250000
    2438.1475     68.244507    101.528458      2.428363      0.036071   -999.250000     12.945847     44.913750      0.792508      0.249549      1.177591   -999.250000   -999.250000
    2437.9951     70.413879    103.173752      2.429245      0.038684   -999.250000     12.910448     44.863083      0.769499      0.235160      1.129197   -999.250000   -999.250000
    2437.8428     72.092010    104.302567      2.411012      0.012342   -999.250000     12.864716     44.812408      0.719975      0.223121      0.879278   -999.250000   -999.250000
    2437.6904     73.707397    106.681229      2.406244      0.018733   -999.250000     12.833714     44.770432      0.737099      0.232231      0.809370   -999.250000   -999.250000
    2437.5381     76.699936    105.366241      2.429706      0.029790   -999.250000     12.862356     44.803886      0.775932      0.249959      0.912578   -999.250000   -999.250000
    2437.3857     79.506409    100.259476      2.424031      0.042908   -999.250000     12.933430     44.832497      0.815880      0.269557      0.974926   -999.250000   -999.250000
    2437.2329     78.384628     98.748276      2.417652      0.067760   -999.250000     12.953882     44.860229      0.852881      0.280457      1.035081   -999.250000   -999.250000
    2437.0806     77.205734     97.260483      2.429620      0.085132   -999.250000     12.891243     44.891159      0.897468      0.293648      1.235182   -999.250000   -999.250000
    2436.9282     75.957031     95.444702      2.402932      0.092056   -999.250000     12.853222     44.921219      0.910291      0.305499      1.355953   -999.250000   -999.250000
    2436.7759     74.812851     96.595901      2.417898      0.055457   -999.250000     12.810448     44.951324      0.889391      0.285431      1.326330   -999.250000   -999.250000
    2436.6235     73.244171     98.680786      2.433033      0.051908   -999.250000     12.780069     44.975319      0.882877      0.264760      1.249528   -999.250000   -999.250000
    2436.4712     71.208969     99.582458      2.442514      0.060529   -999.250000     12.758411     44.995010      0.876400      0.272190      1.110288   -999.250000   -999.250000
    2436.3188     68.281158     96.520935      2.403712      0.033801   -999.250000     12.856005     45.014709      0.874616      0.279511      0.992611   -999.250000   -999.250000
    2436.1665     69.414139     96.052917      2.411589      0.019170   -999.250000     12.840340     45.023132      0.892858      0.295346      1.188842   -999.250000   -999.250000
    2436.0137     70.625778     95.380844      2.400156      0.023369   -999.250000     12.811703     44.973816      0.902096      0.305000      1.563158   -999.250000   -999.250000
    2435.8613     73.080627     97.088959      2.404454      0.025238   -999.250000     12.783812     44.942474      0.824195      0.271722      1.633206   -999.250000   -999.250000
    2435.7090     73.274200    102.482605      2.394669      0.033906   -999.250000     12.789896     44.922546      0.768194      0.247961      1.068430   -999.250000   -999.250000
    2435.5566     70.427917    105.676056      2.432007      0.043227   -999.250000     12.796099     44.916290      0.723694      0.228016      0.860829   -999.250000   -999.250000
    2435.4043     67.809967    107.272842      2.418993      0.045828   -999.250000     12.802301     44.910019      0.693761      0.205710      1.027532   -999.250000   -999.250000
    2435.2520     67.140869    108.067062      2.431546      0.021855   -999.250000     12.808867     44.904236      0.681451      0.190789      1.075465   -999.250000   -999.250000
    2435.0996     66.748825    109.078812      2.423918      0.038780   -999.250000     12.816086     44.934990      0.680774      0.202547      0.959030   -999.250000   -999.250000
    2434.9473     67.378510    108.238419      2.413209      0.052333   -999.250000     12.823305     44.963554      0.707888      0.209205      0.880060   -999.250000   -999.250000
    2434.7949     69.453568    107.601883      2.398849      0.043679   -999.250000     12.827482     44.994034      0.727865      0.221723      0.809163   -999.250000   -999.250000
    2434.6421     72.630844    106.699310      2.340149      0.039279   -999.250000     12.700203     44.920662      0.761163      0.235576      0.765975   -999.250000   -999.250000
    2434.4897     79.329865    103.561661      2.326119      0.061889   -999.250000     12.647600     44.842133      0.807456      0.250868      0.894029   -999.250000   -999.250000
    2434.3374     74.628860    101.690659      2.319660      0.036022   -999.250000     12.712494     44.763603      0.850701      0.265569      1.044474   -999.250000   -999.250000
    2434.1851     71.118149    100.478577      2.344110      0.041721   -999.250000     12.750294     44.683136      0.892601      0.273224      1.169066   -999.250000   -999.250000
    2434.0327     66.062332     99.917725      2.364813      0.041337   -999.250000     12.639048     44.597542      0.906026      0.279500      1.253330   -999.250000   -999.250000
    2433.8804     62.622726     99.124191      2.375626      0.040595   -999.250000     12.665646     44.511940      0.918158      0.283612      1.319445   -999.250000   -999.250000
    2433.7280     63.280045     98.260498      2.408672      0.057556   -999.250000     12.727076     44.426346      0.915118      0.287791      1.337568   -999.250000   -999.250000
    2433.5757     63.533485     99.014908      2.401695      0.063688   -999.250000     12.776497     44.368523      0.912389      0.292861      1.274963   -999.250000   -999.250000
    2433.4233     61.887703     99.668365      2.380830      0.029760   -999.250000     12.734093     44.322075      0.901486      0.281523      1.276380   -999.250000   -999.250000
    2433.2705     63.092003     98.531235      2.370847      0.041099   -999.250000     12.737219     44.275696      0.881007      0.268204      1.277655   -999.250000   -999.250000
    2433.1182     66.672211     99.002365      2.393382      0.047618   -999.250000     12.741066     44.240906      0.863088      0.255794      1.278552   -999.250000   -999.250000
    2432.9658     70.867050    100.248505      2.384925      0.032776   -999.250000     12.745653     44.214111      0.826043      0.242795      1.246359   -999.250000   -999.250000
    2432.8135     74.561310    102.269440      2.414809      0.044526   -999.250000     12.729357     44.187271      0.791667      0.221828      1.109963   -999.250000   -999.250000
