# LAS format data
~Version Information
VERS.     2.00: CWLS LOG ASCII STANDARD - VERSION 2.0
WRAP.       NO: ONE LINE PER DEPTH STEP
~Well Information
#MNEM   .UNITS    DATA                           DESCRIPTION
#----   ------    ----                           -----------
STRT    .M        3156.8657                     :First Index Value
STOP    .M        38.0000                       :Last Index Value
STEP    .M        -0.1524                       :Frame Spacing
NULL    .         -999.2500                     :Absent Value
WELL    .         F/3-4                         :Well Name
FLD     .         APPRAISAL                     :Field Name
CNTY    .         NETHERLANDS                   :County
STAT    .         NORTH SEA                     :State
CTRY    .                                       :Country
LOC     .                                       :Location
API     .                                       :API Number
DATE    .                                       :Date
COMP    .         N.A.M.                        :Company Name
SRVC    .                                       :Service Company
~Other Information
GR RUN 1 FROM FDN SHIFTED +2M AS PER COMMENTS ON LOG HEADER 
~Curve Information
#MNEM   .UNITS    API CODE                       CURVE DESCRIPTION
#----   ------    --------                       -----------------
DEPT    .M                                      :1     Index curve
GR      .GAPI                                   :2     BHCFDN
DT      .US/F                                   :3     BHC   
RHOB    .G/CC                                   :4     FDN   
DRHO    .G/CC                                   :5     FDN   
NPHI    .PU                                     :6     FDN   
CALI    .IN                                     :7     FDN   
SP      .MV                                     :8     DLL   
LLS     .OHMM                                   :9     DLL   
LLD     .OHMM                                   :10    DLL   
MSFL    .OHMM                                   :11    DLL   
SN      .OHMM                                   :12    IEL   
ILD     .OHMM                                   :13    IEL   
~Ascii Log Data
# ...
     655.6771     49.423882    154.907440      2.041340      0.033815   -999.250000     17.742805     47.557899      0.340460      0.308629      0.292597   -999.250000   -999.250000
     655.5248     47.174072    156.578613      2.030158      0.021587   -999.250000     17.747818     47.460869      0.337640      0.302761      0.290489   -999.250000   -999.250000
     655.3724     45.241173    163.052399      2.016167      0.017102   -999.250000     17.682312     47.371918      0.335017      0.296194      0.284668   -999.250000   -999.250000
     655.2200     50.322815    164.004944      2.011580      0.014352   -999.250000     17.674084     47.195496      0.330218      0.290901      0.278281   -999.250000   -999.250000
     655.0676     45.884758    161.334808      2.025293      0.032514   -999.250000     17.663502     47.071579      0.324329      0.283826      0.257901   -999.250000   -999.250000
     654.9152     45.879456    157.463806      2.010632      0.015963   -999.250000     17.681252     47.283195      0.318543      0.277605      0.251679   -999.250000   -999.250000
     654.7628     46.839493    152.467987      2.024361      0.020062   -999.250000     17.701855     47.383904      0.313346      0.273756      0.256645   -999.250000   -999.250000
     654.6104     46.890961    146.631805      2.031434      0.020167   -999.250000     17.692127     47.384468      0.308786      0.272625      0.261205   -999.250000   -999.250000
     654.4580     48.100876    147.904633      2.027982      0.010299   -999.250000     17.679657     47.385025      0.305456      0.282423      0.266587   -999.250000   -999.250000
     654.3055     49.866676    147.353516      2.020326      0.002749   -999.250000     17.665096     47.435516      0.331530      0.288754      0.275168   -999.250000   -999.250000
     654.1532     52.341438    151.535522      2.016919      0.008200   -999.250000     17.648819     47.529610      0.342143      0.293136      0.283633   -999.250000   -999.250000
     654.0007     54.911057    152.080109      2.036009      0.011067   -999.250000     17.639412     47.623665      0.337193      0.294842      0.283871   -999.250000   -999.250000
     653.8484     55.716446    152.148254      2.021856      0.015168   -999.250000     17.666546     47.727547      0.338514      0.295043      0.284579   -999.250000   -999.250000
     653.6959     54.483734    149.759796      2.018820      0.007299   -999.250000     17.685627     47.904030      0.339457      0.295256      0.286526   -999.250000   -999.250000
     653.5436     54.300293    146.807983      2.014775      0.004301   -999.250000     17.706306     47.733681      0.341428      0.294757      0.288050   -999.250000   -999.250000
     653.3912     56.958412    147.236237      2.021273      0.011945   -999.250000     17.729881     47.536667      0.343059      0.294229      0.281797   -999.250000   -999.250000
     653.2388     49.941292    147.388123      2.015792      0.003556   -999.250000     17.843002     47.359299      0.340108      0.293639      0.277700   -999.250000   -999.250000
     653.0864     50.924118    146.387482      2.022068      0.010193   -999.250000     18.597691     47.383736      0.339151      0.292953      0.272568   -999.250000   -999.250000
     652.9340     52.804024    148.011871      2.026123      0.004359   -999.250000     18.878551     47.394989      0.340839      0.292568      0.282188   -999.250000   -999.250000
     652.7816     51.226501    147.141022      2.053355      0.001308   -999.250000     18.690586     47.406242      0.341882      0.296994      0.289693   -999.250000   -999.250000
     652.6292     52.524704    146.160248      2.062644      0.016915   -999.250000     18.577427     47.447006      0.346975      0.298850      0.295393   -999.250000   -999.250000
     652.4768     53.402168    145.384003      2.048853      0.019471   -999.250000     18.350410     47.562218      0.351259      0.301137      0.303841   -999.250000   -999.250000
     652.3243     52.346115    144.615204      2.056530      0.010459   -999.250000     18.159866     47.677422      0.354036      0.304043      0.320676   -999.250000   -999.250000
     652.1720     52.569855    146.482117      2.052650      0.020866   -999.250000     18.036366     47.820755      0.356297      0.305634      0.358245   -999.250000   -999.250000
     652.0195     52.536102    147.396454      2.041053      0.003478   -999.250000     17.900536     48.001411      0.351154      0.303964      0.398040   -999.250000   -999.250000
     651.8672     49.947685    148.841888      2.030064     -0.010360   -999.250000     17.788109     47.891251      0.346163      0.303026      0.411158   -999.250000   -999.250000
     651.7147     50.810043    149.770355      2.024458     -0.012101   -999.250000     17.771694     47.766159      0.339720      0.293980      0.344094   -999.250000   -999.250000
     651.5624     52.475281    150.413574      2.037832      0.003081   -999.250000     17.788948     47.545258      0.334422      0.284978      0.311426   -999.250000   -999.250000
     651.4100     53.454254    155.445923      2.030427      0.000383   -999.250000     17.799198     47.338287      0.329772      0.282252      0.290963   -999.250000   -999.250000
     651.2576     47.332146    158.870758      2.006907     -0.001281   -999.250000     17.771046     47.207405      0.325827      0.279418      0.286480   -999.250000   -999.250000
     651.1052     43.789146    161.274658      2.003260     -0.000473   -999.250000     17.713120     47.297585      0.322970      0.278153      0.282386   -999.250000   -999.250000
     650.9528     42.259247    159.608887      2.005589      0.001042   -999.250000     17.745377     47.363518      0.321541      0.276895      0.277328   -999.250000   -999.250000
     650.8004     39.998344    157.951782      2.000807      0.005618   -999.250000     17.843571     47.439819      0.320365      0.276186      0.271123   -999.250000   -999.250000
     650.6479     39.153648    155.856323      2.000026      0.006687   -999.250000     17.865398     47.538353      0.320499      0.276246      0.265097   -999.250000   -999.250000
     650.4956     41.788078    152.787537      2.003524      0.009582   -999.250000     17.788582     47.630760      0.320624      0.276295      0.258756   -999.250000   -999.250000
     650.3431     43.218819    157.498993      2.012693      0.015796   -999.250000     17.761944     47.765770      0.321391      0.277961      0.258060   -999.250000   -999.250000
     650.1908     43.914703    158.193695      2.020480      0.019640   -999.250000     17.746590     48.469864      0.319789      0.280016      0.262931   -999.250000   -999.250000
     650.0383     44.279938    155.765381      2.005257      0.013126   -999.250000     17.731052     48.144981      0.317707      0.281933      0.265063   -999.250000   -999.250000
     649.8860     41.375694    154.558746      1.999179      0.004990   -999.250000     17.738724     47.607079      0.315341      0.283685      0.266629   -999.250000   -999.250000
     649.7335     42.621063    150.204590      2.005097      0.001644   -999.250000     17.748135     47.359367      0.312862      0.285448      0.269164   -999.250000   -999.250000
     649.5812     44.861748    147.516541      2.001151     -0.000182   -999.250000     17.742542     47.180595      0.310902      0.287291      0.271506   -999.250000   -999.250000
     649.4288     49.065453    151.402588      1.998918      0.000518   -999.250000     17.737003     47.270973      0.310819      0.289150      0.272772   -999.250000   -999.250000
     649.2764     48.862213    151.365448      1.998091      0.001207   -999.250000     17.727791     47.387482      0.310752      0.291096      0.271810   -999.250000   -999.250000
     649.1240     46.392578    152.451080      2.009016      0.001886   -999.250000     17.716198     47.474548      0.312353      0.292604      0.271155   -999.250000   -999.250000
