# LAS format data
~Version Information
VERS.     2.00: CWLS LOG ASCII STANDARD - VERSION 2.0
WRAP.       NO: ONE LINE PER DEPTH STEP
~Well Information
#MNEM   .UNITS    DATA                           DESCRIPTION
#----   ------    ----                           -----------
STRT    .M        3156.8657                     :First Index Value
STOP    .M        38.0000                       :Last Index Value
STEP    .M        -0.1524                       :Frame Spacing
NULL    .         -999.2500                     :Absent Value
WELL    .         F/3-4                         :Well Name
FLD     .         APPRAISAL                     :Field Name
CNTY    .         NETHERLANDS                   :County
STAT    .         NORTH SEA                     :State
CTRY    .                                       :Country
LOC     .                                       :Location
API     .                                       :API Number
DATE    .                                       :Date
COMP    .         N.A.M.                        :Company Name
SRVC    .                                       :Service Company
~Other Information
GR RUN 1 FROM FDN SHIFTED +2M AS PER COMMENTS ON LOG HEADER 
~Curve Information
#MNEM   .UNITS    API CODE                       CURVE DESCRIPTION
#----   ------    --------                       -----------------
DEPT    .M                                      :1     Index curve
GR      .GAPI                                   :2     BHCFDN
DT      .US/F                                   :3     BHC   
RHOB    .G/CC                                   :4     FDN   
DRHO    .G/CC                                   :5     FDN   
NPHI    .PU                                     :6     FDN   
CALI    .IN                                     :7     FDN   
SP      .MV                                     :8     DLL   
LLS     .OHMM                                   :9     DLL   
LLD     .OHMM                                   :10    DLL   
MSFL    .OHMM                                   :11    DLL   
SN      .OHMM                                   :12    IEL   
ILD     .OHMM                                   :13    IEL   
~Ascii Log Data
# ...
    2794.7637     28.293297     93.925766      2.230699      0.019303     31.116577      8.450253     44.555191      0.510546      0.598316   -999.250000   -999.250000   -999.250000
    2794.6113     33.565460     96.789734      2.273401      0.032232     31.892345      8.451214     44.476166      0.611265      0.692811   -999.250000   -999.250000   -999.250000
    2794.4585     39.352257     97.593887      2.303837     -0.000072     30.422089      8.452196     44.361092      0.654342      0.768627   -999.250000   -999.250000   -999.250000
    2794.3062     46.205925     95.489502      2.323081     -0.007013     29.196449      8.451094     44.210312      0.601462      0.627299   -999.250000   -999.250000   -999.250000
    2794.1538     52.519547     93.071060      2.335829     -0.001142     28.370075      8.449968     44.038277      0.512871      0.511966   -999.250000   -999.250000   -999.250000
    2794.0015     54.879044     89.092560      2.326383     -0.001124     27.012218      8.448841     43.879791      0.502735      0.469421   -999.250000   -999.250000   -999.250000
    2793.8491     56.716171     88.372589      2.337520     -0.003487     26.509319      8.447979     43.695625      0.490191      0.453765   -999.250000   -999.250000   -999.250000
    2793.6968     55.261055     88.813339      2.343876      0.004493     26.884392      8.447857     43.511459      0.484161      0.458549   -999.250000   -999.250000   -999.250000
    2793.5444     53.391151     88.860138      2.337234      0.012519     26.771843      8.447758     43.348709      0.481748      0.461238   -999.250000   -999.250000   -999.250000
    2793.3921     50.548782     88.882858      2.346018      0.013732     26.342976      8.447660     43.206169      0.475045      0.440107   -999.250000   -999.250000   -999.250000
    2793.2397     48.192467     88.860092      2.338726      0.014225     25.505173      8.447542     43.063393      0.462637      0.423777   -999.250000   -999.250000   -999.250000
    2793.0869     46.864182     88.847595      2.346099      0.011102     24.370785      8.449852     42.964310      0.453275      0.410890   -999.250000   -999.250000   -999.250000
    2792.9346     48.506203     89.306717      2.365611      0.022881     23.372334      8.452162     42.907303      0.422735      0.398145   -999.250000   -999.250000   -999.250000
    2792.7822     53.156364     89.644150      2.376179      0.023533     22.836765      8.454473     42.850304      0.445729      0.421289   -999.250000   -999.250000   -999.250000
    2792.6299     53.796509     89.739807      2.378590      0.012120     22.653870      8.456783     42.823944      0.492425      0.484506   -999.250000   -999.250000   -999.250000
    2792.4775     54.319450     88.824982      2.389502      0.009051     23.344429      8.459093     42.812820      0.557083      0.558428   -999.250000   -999.250000   -999.250000
    2792.3252     54.862991     85.592041      2.399136      0.006814     23.543484      8.460247     42.626175      0.635136      0.636902   -999.250000   -999.250000   -999.250000
    2792.1729     57.743065     86.020706      2.415211      0.011266     23.310318      8.457775     42.314987      0.700170      0.703532   -999.250000   -999.250000   -999.250000
    2792.0205     57.371758     85.447403      2.427132      0.015828     23.917027      8.456345     41.921021      0.712773      0.682128   -999.250000   -999.250000   -999.250000
    2791.8677     58.063934     84.826447      2.360580      0.019640     25.457844      8.455576     41.422447      0.646739      0.618926   -999.250000   -999.250000   -999.250000
    2791.7153     59.939880     85.283630      2.231089     -0.022363     34.534569      8.476460     40.818443      0.687730      0.657747   -999.250000   -999.250000   -999.250000
    2791.5630     62.732964     88.695526      2.203893     -0.002855     39.423424      8.490715     40.141571      0.774764      0.801865   -999.250000   -999.250000   -999.250000
    2791.4106     67.503265     96.655212      2.188946      0.039274     42.634773      8.501240     39.419235      0.938203      1.018591   -999.250000   -999.250000   -999.250000
    2791.2583     70.703690     99.599380      2.185207      0.009383     43.939850      8.614693     38.590950      1.139525      1.255233   -999.250000   -999.250000   -999.250000
    2791.1060     74.678391    107.210831      2.301087      0.040386     40.534431      8.702642     37.952858      1.267204      1.176844   -999.250000   -999.250000   -999.250000
    2790.9536     78.974792    108.731339      2.347999      0.051915     36.090126      8.546000     37.486305      1.221756      1.060574   -999.250000   -999.250000   -999.250000
    2790.8013     85.110550    101.096527      2.402401      0.013916     31.995937      8.560408     37.080750      1.265346      0.983887   -999.250000   -999.250000   -999.250000
    2790.6489     88.434586     98.419525      2.410926      0.001848     31.038799      8.571451     36.760094      1.312773      1.057106   -999.250000   -999.250000   -999.250000
    2790.4961     91.926514     89.580368      2.327528     -0.001708     40.297836      8.675747     36.439949      1.423293      1.141198   -999.250000   -999.250000   -999.250000
    2790.3438     93.657532     87.028046      2.150631      0.009168     43.935654      8.978180     36.202484      1.540618      1.238922   -999.250000   -999.250000   -999.250000
    2790.1914     94.986176     87.765518      1.972034      0.014265     52.712608      9.661835     36.000664      1.589418      1.353067   -999.250000   -999.250000   -999.250000
    2790.0391     91.879837     92.926514      1.812031     -0.009897     55.174309     11.882107     35.798531      1.507820      1.225223   -999.250000   -999.250000   -999.250000
    2789.8867     83.624207    111.839157      1.848221     -0.010285     56.423691     11.271660     35.602539      1.396826      0.998120   -999.250000   -999.250000   -999.250000
    2789.7344     76.329834    116.986328      1.853786     -0.005197     53.336205     10.847181     35.553238      1.060180      0.781648   -999.250000   -999.250000   -999.250000
    2789.5820     72.262634    132.028473      1.804983     -0.012239     49.000229     12.289331     35.505325      0.831267      0.655913   -999.250000   -999.250000   -999.250000
    2789.4297     69.222626    141.565796      1.753419     -0.020575     45.608788     10.785416     35.457100      0.881575      0.746045   -999.250000   -999.250000   -999.250000
    2789.2773     66.867783    145.326508      1.685530     -0.027103     46.688217      8.817629     35.321228      0.981080      0.893147   -999.250000   -999.250000   -999.250000
    2789.1245     65.132538    150.803558      1.681006     -0.014757     47.613426      8.623337     35.184692      1.284574      1.313659   -999.250000   -999.250000   -999.250000
    2788.9722     63.326920    144.632782      2.011454     -0.006187     42.193932      8.582050     35.079758      1.657787      1.661483   -999.250000   -999.250000   -999.250000
    2788.8198     62.280174    129.391388      2.126355     -0.017778     36.574036      8.576803     35.018776      1.496589      1.445608   -999.250000   -999.250000   -999.250000
    2788.6675     65.085388    115.645599      2.233307     -0.009913     30.858910      8.571896     34.957695      1.262424      1.052430   -999.250000   -999.250000   -999.250000
    2788.5151     71.024017    107.419525      2.336292     -0.000881     27.763031      8.566988     34.874855      1.104010      0.955350   -999.250000   -999.250000   -999.250000
    2788.3628     73.208527     96.943359      2.380378      0.014489     26.758064      8.565062     34.732208      1.132437      0.912484   -999.250000   -999.250000   -999.250000
    2788.2104     72.510651     91.635910      2.411980      0.001421     25.696156      8.573034     34.589561      1.163678      0.969772   -999.250000   -999.250000   -999.250000
