# LAS format data
~Version Information
VERS.     2.00: CWLS LOG ASCII STANDARD - VERSION 2.0
WRAP.       NO: ONE LINE PER DEPTH STEP
~Well Information
#MNEM   .UNITS    DATA                           DESCRIPTION
#----   ------    ----                           -----------
STRT    .M        3156.8657                     :First Index Value
STOP    .M        38.0000                       :Last Index Value
STEP    .M        -0.1524                       :Frame Spacing
NULL    .         -999.2500                     :Absent Value
WELL    .         F/3-4                         :Well Name
FLD     .         APPRAISAL                     :Field Name
CNTY    .         NETHERLANDS                   :County
STAT    .         NORTH SEA                     :State
CTRY    .                                       :Country
LOC     .                                       :Location
API     .                                       :API Number
DATE    .                                       :Date
COMP    .         N.A.M.                        :Company Name
SRVC    .                                       :Service Company
~Other Information
GR RUN 1 FROM FDN SHIFTED +2M AS PER COMMENTS ON LOG HEADER 
~Curve Information
#MNEM   .UNITS    API CODE                       CURVE DESCRIPTION
#----   ------    --------                       -----------------
DEPT    .M                                      :1     Index curve
GR      .GAPI                                   :2     BHCFDN
DT      .US/F                                   :3     BHC   
RHOB    .G/CC                                   :4     FDN   
DRHO    .G/CC                                   :5     FDN   
NPHI    .PU                                     :6     FDN   
CALI    .IN                                     :7     FDN   
SP      .MV                                     :8     DLL   
LLS     .OHMM                                   :9     DLL   
LLD     .OHMM                                   :10    DLL   
MSFL    .OHMM                                   :11    DLL   
SN      .OHMM                                   :12    IEL   
ILD     .OHMM                                   :13    IEL   
~Ascii Log Data
# ...
     836.7284     63.737053    133.186829      2.138765      0.012133   -999.250000     17.720032     45.905441      0.551554      0.535540      0.616557   -999.250000   -999.250000
     836.5759     68.132034    132.277252      2.155837      0.011917   -999.250000     17.720936     45.757538      0.585693      0.590632      0.653010   -999.250000   -999.250000
     836.4236     72.575485    134.438477      2.159064      0.014921   -999.250000     17.721649     45.609642      0.601061      0.612454      0.631752   -999.250000   -999.250000
     836.2712     77.206360    139.928192      2.146685      0.010816   -999.250000     17.694344     45.484604      0.597518      0.605973      0.644291   -999.250000   -999.250000
     836.1188     77.330261    139.922760      2.125792      0.006131   -999.250000     17.676025     45.396164      0.559751      0.578513      0.657188   -999.250000   -999.250000
     835.9664     74.133392    139.917358      2.073900     -0.001231   -999.250000     17.702236     45.335503      0.506524      0.492703      0.661710   -999.250000   -999.250000
     835.8140     65.299194    139.911957      2.045785      0.009369   -999.250000     17.750084     45.770119      0.444242      0.426638      0.505322   -999.250000   -999.250000
     835.6616     58.291153    139.906555      2.036574      0.020862   -999.250000     17.869152     46.086479      0.388471      0.363400      0.368222   -999.250000   -999.250000
     835.5092     54.670158    139.901123      2.023798      0.015881   -999.250000     17.908688     46.375648      0.352341      0.321708      0.279774   -999.250000   -999.250000
     835.3568     50.556198    139.895721      2.007026      0.009539   -999.250000     17.917240     46.654854      0.330990      0.297696      0.270081   -999.250000   -999.250000
     835.2043     48.013359    137.719208      2.004015      0.005894   -999.250000     17.889816     46.934059      0.324399      0.303794      0.269112   -999.250000   -999.250000
     835.0520     46.305244    134.197815      2.040384      0.005135   -999.250000     17.840527     47.113167      0.331139      0.316077      0.281860   -999.250000   -999.250000
     834.8995     45.370697    132.414154      2.093381      0.002360   -999.250000     17.810848     47.256165      0.340262      0.331634      0.302746   -999.250000   -999.250000
     834.7472     54.843803    131.488800      2.104726     -0.000870   -999.250000     17.796890     47.374023      0.361024      0.349655      0.339070   -999.250000   -999.250000
     834.5947     59.758972    133.111969      2.118438     -0.005272   -999.250000     17.761181     47.129822      0.390581      0.377545      0.378646   -999.250000   -999.250000
     834.4424     64.480652    136.558960      2.131585     -0.006700   -999.250000     17.709541     46.866020      0.423693      0.403779      0.476035   -999.250000   -999.250000
     834.2900     69.198196    139.390594      2.142700      0.001902   -999.250000     17.657650     46.478241      0.460790      0.456093      0.547057   -999.250000   -999.250000
     834.1376     67.606552    139.453796      2.122758      0.004923   -999.250000     17.629398     46.132011      0.514035      0.505210      0.583506   -999.250000   -999.250000
     833.9852     64.984268    137.515381      2.089226     -0.007134   -999.250000     17.628395     45.900826      0.571762      0.560169      0.606622   -999.250000   -999.250000
     833.8328     63.731445    131.203125      2.100425     -0.001948   -999.250000     17.627720     45.759079      0.593228      0.587701      0.631618   -999.250000   -999.250000
     833.6804     62.752571    129.536865      2.124428     -0.007062   -999.250000     17.630486     45.762276      0.568836      0.555602      0.653931   -999.250000   -999.250000
     833.5280     61.336792    129.522827      2.134372     -0.001098   -999.250000     17.632305     45.764572      0.525312      0.512383      0.601070   -999.250000   -999.250000
     833.3756     64.224655    129.781433      2.142787      0.000109   -999.250000     17.655521     45.840813      0.478559      0.476196      0.468941   -999.250000   -999.250000
     833.2231     69.928162    130.119293      2.151633      0.007318   -999.250000     17.677509     45.973312      0.447597      0.445995      0.405146   -999.250000   -999.250000
     833.0708     68.811020    130.557159      2.160268      0.003352   -999.250000     17.706612     46.084160      0.460074      0.455937      0.390014   -999.250000   -999.250000
     832.9183     69.829727    130.363647      2.167251      0.009104   -999.250000     17.753975     45.977737      0.523139      0.503085      0.518251   -999.250000   -999.250000
     832.7660     73.000443    129.593475      2.175398      0.007039   -999.250000     17.875172     45.868393      0.556170      0.570981      0.580829   -999.250000   -999.250000
     832.6135     73.244202    130.383545      2.169007      0.005638   -999.250000     17.883732     45.730362      0.613617      0.601601      0.659802   -999.250000   -999.250000
     832.4612     73.412735    132.957764      2.167042      0.013289   -999.250000     17.876614     45.600204      0.623943      0.613664      0.665246   -999.250000   -999.250000
     832.3088     72.493469    133.910339      2.165437      0.017544   -999.250000     17.813416     45.479698      0.637167      0.611591      0.611391   -999.250000   -999.250000
     832.1564     73.171661    134.464355      2.147354      0.019391   -999.250000     17.757771     45.359230      0.641312      0.608924      0.569401   -999.250000   -999.250000
     832.0040     73.560272    134.685303      2.128572      0.007567   -999.250000     17.730415     45.238724      0.636344      0.608033      0.543747   -999.250000   -999.250000
     831.8516     71.913834    131.562103      2.148457      0.015089   -999.250000     17.707535     45.147598      0.635423      0.610339      0.580991   -999.250000   -999.250000
     831.6992     71.030029    132.141235      2.160439      0.007243   -999.250000     17.713444     45.258484      0.668897      0.611672      0.600869   -999.250000   -999.250000
     831.5468     72.220581    131.588257      2.166177      0.016115   -999.250000     17.718452     45.347626      0.653862      0.603327      0.607322   -999.250000   -999.250000
     831.3944     73.327026    132.277069      2.164408      0.018530   -999.250000     17.725330     45.436836      0.630384      0.595414      0.584181   -999.250000   -999.250000
     831.2419     75.463547    131.850403      2.160069      0.007718   -999.250000     17.738781     45.584785      0.611802      0.585719      0.569863   -999.250000   -999.250000
     831.0896     79.221924    132.405029      2.164325      0.011269   -999.250000     17.720547     45.732849      0.602072      0.574611      0.552445   -999.250000   -999.250000
     830.9371     75.720123    132.149231      2.160374      0.004996   -999.250000     17.701092     45.850197      0.596209      0.567674      0.541760   -999.250000   -999.250000
     830.7848     71.406769    132.563904      2.170567      0.007355   -999.250000     17.698517     45.735893      0.603759      0.576814      0.538990   -999.250000   -999.250000
     830.6323     69.787216    132.845642      2.174278      0.008627   -999.250000     17.696037     45.641228      0.606281      0.588270      0.550051   -999.250000   -999.250000
     830.4800     69.335693    132.053284      2.174919      0.003134   -999.250000     17.695061     45.529312      0.612823      0.601915      0.566450   -999.250000   -999.250000
     830.3276     72.982437    131.602509      2.170186      0.013928   -999.250000     17.712788     45.313271      0.625080      0.616776      0.583395   -999.250000   -999.250000
     830.1752     71.983826    132.492950      2.187499      0.030526   -999.250000     17.729237     45.049187      0.643750      0.629127      0.596574   -999.250000   -999.250000
