# LAS format data
~Version Information
VERS.     2.00: CWLS LOG ASCII STANDARD - VERSION 2.0
WRAP.       NO: ONE LINE PER DEPTH STEP
~Well Information
#MNEM   .UNITS    DATA                           DESCRIPTION
#----   ------    ----                           -----------
STRT    .M        3156.8657                     :First Index Value
STOP    .M        38.0000                       :Last Index Value
STEP    .M        -0.1524                       :Frame Spacing
NULL    .         -999.2500                     :Absent Value
WELL    .         F/3-4                         :Well Name
FLD     .         APPRAISAL                     :Field Name
CNTY    .         NETHERLANDS                   :County
STAT    .         NORTH SEA                     :State
CTRY    .                                       :Country
LOC     .                                       :Location
API     .                                       :API Number
DATE    .                                       :Date
COMP    .         N.A.M.                        :Company Name
SRVC    .                                       :Service Company
~Other Information
GR RUN 1 FROM FDN SHIFTED +2M AS PER COMMENTS ON LOG HEADER 
~Curve Information
#MNEM   .UNITS    API CODE                       CURVE DESCRIPTION
#----   ------    --------                       -----------------
DEPT    .M                                      :1     Index curve
GR      .GAPI                                   :2     BHCFDN
DT      .US/F                                   :3     BHC   
RHOB    .G/CC                                   :4     FDN   
DRHO    .G/CC                                   :5     FDN   
NPHI    .PU                                     :6     FDN   
CALI    .IN                                     :7     FDN   
SP      .MV                                     :8     DLL   
LLS     .OHMM                                   :9     DLL   
LLD     .OHMM                                   :10    DLL   
MSFL    .OHMM                                   :11    DLL   
SN      .OHMM                                   :12    IEL   
ILD     .OHMM                                   :13    IEL   
~Ascii Log Data
# ...
    1192.1252     66.147781    142.246796      2.091242      0.055001   -999.250000     18.089157     30.361462      0.869490      0.847862      0.638330   -999.250000   -999.250000
    1191.9727     67.877167    140.719208      2.070589      0.037688   -999.250000     18.105568     30.361591      0.872453      0.847618      0.588687   -999.250000   -999.250000
    1191.8203     71.856262    142.069794      2.063993      0.029689   -999.250000     18.081455     30.361725      0.857247      0.856124      0.639153   -999.250000   -999.250000
    1191.6680     73.159637    141.673004      2.055619      0.046136   -999.250000     18.361877     30.361855      0.843771      0.861280      0.644293   -999.250000   -999.250000
    1191.5156     71.770126    141.065430      2.030602      0.050917   -999.250000     18.687855     30.361984      0.839988      0.866489      0.516152   -999.250000   -999.250000
    1191.3630     67.991119    140.762390      2.056819      0.036580   -999.250000     18.357613     30.362087      0.856483      0.865714      0.552384   -999.250000   -999.250000
    1191.2107     63.732513    139.460968      2.088098      0.058978   -999.250000     18.437698     30.423378      0.868575      0.864938      0.642217   -999.250000   -999.250000
    1191.0583     67.102554    137.942505      2.094647      0.049419   -999.250000     18.524025     30.473602      0.855519      0.864161      0.651556   -999.250000   -999.250000
    1190.9060     70.378937    136.867371      2.058928      0.020455   -999.250000     18.289051     30.518875      0.838701      0.856440      0.486931   -999.250000   -999.250000
    1190.7537     70.561081    138.039429      2.046410      0.016221   -999.250000     18.173096     30.537628      0.825489      0.839323      0.446519   -999.250000   -999.250000
    1190.6011     68.553925    137.051239      2.080658      0.070824   -999.250000     18.486328     30.554703      0.842434      0.832715      0.411371   -999.250000   -999.250000
    1190.4487     66.535995    135.032257      2.134975      0.073795   -999.250000     18.739117     30.579224      0.856818      0.860682      0.398478   -999.250000   -999.250000
    1190.2964     62.916359    134.105835      2.144485      0.047945   -999.250000     18.222885     30.619080      0.869111      0.878535      0.562562   -999.250000   -999.250000
    1190.1440     61.339905    133.631500      2.133136      0.042373   -999.250000     18.183491     30.658905      0.890163      0.892280      0.658165   -999.250000   -999.250000
    1189.9915     65.995438    134.265503      2.123011      0.033360   -999.250000     18.185825     30.716965      0.896914      0.902355      0.583943   -999.250000   -999.250000
    1189.8391     64.184662    142.287018      2.111050      0.052244   -999.250000     18.293125     30.801460      0.901549      0.912553      0.463134   -999.250000   -999.250000
    1189.6868     67.459167    141.671814      2.103144      0.039700   -999.250000     18.570541     30.822880      0.903300      0.916412      0.582063   -999.250000   -999.250000
    1189.5344     68.461533    141.672333      2.104441      0.046167   -999.250000     18.371674     30.848953      0.885988      0.903537      0.686546   -999.250000   -999.250000
    1189.3818     66.694931    140.955383      2.084420      0.032077   -999.250000     18.338715     30.880100      0.876887      0.889995      0.739019   -999.250000   -999.250000
    1189.2295     66.129715    136.632965      2.084949      0.049561   -999.250000     18.584480     30.847397      0.870502      0.872660      0.713436   -999.250000   -999.250000
    1189.0771     69.704315    138.897491      2.070085      0.045940   -999.250000     18.592537     30.806786      0.864158      0.855650      0.621406   -999.250000   -999.250000
    1188.9248     67.194931    138.578644      2.039136      0.016282   -999.250000     19.011162     30.766144      0.859983      0.842815      0.505391   -999.250000   -999.250000
    1188.7725     65.684784    139.531830      2.031785      0.029163   -999.250000     18.634296     30.718964      0.867339      0.854178      0.430642   -999.250000   -999.250000
    1188.6199     67.156372    145.837158      2.040815      0.048056   -999.250000     18.716663     30.669376      0.872877      0.860777      0.448414   -999.250000   -999.250000
    1188.4675     67.638870    147.532593      2.013218      0.017064   -999.250000     18.530254     30.619831      0.876539      0.864578      0.535848   -999.250000   -999.250000
    1188.3152     65.260101    148.156464      2.024892      0.007515   -999.250000     18.587719     30.558353      0.868083      0.868497      0.501311   -999.250000   -999.250000
    1188.1628     71.136475    148.157288      2.036823      0.021544   -999.250000     18.703697     30.488564      0.862343      0.845847      0.426182   -999.250000   -999.250000
    1188.0103     71.204865    144.117340      2.062304      0.016361   -999.250000     18.750553     30.418716      0.840590      0.825348      0.384764   -999.250000   -999.250000
    1187.8579     68.905029    142.690125      1.999029      0.024468   -999.250000     18.582211     30.365089      0.820954      0.806839      0.461167   -999.250000   -999.250000
    1187.7056     68.329712    142.378754      2.001014      0.008182   -999.250000     18.538933     30.340294      0.805227      0.792872      0.513935   -999.250000   -999.250000
    1187.5532     71.762817    143.308472      1.984696      0.023245   -999.250000     18.570190     30.320145      0.800378      0.808823      0.588170   -999.250000   -999.250000
    1187.4006     69.082321    142.989441      1.982898      0.063000   -999.250000     18.696880     30.300014      0.822764      0.819768      0.658708   -999.250000   -999.250000
    1187.2483     67.225769    144.543549      1.971154      0.029522   -999.250000     18.415424     30.272972      0.839155      0.847692      0.726400   -999.250000   -999.250000
    1187.0959     64.475433    142.539612      1.997151      0.056932   -999.250000     18.930275     30.234303      0.851861      0.858001      0.763496   -999.250000   -999.250000
    1186.9436     62.688713    140.971771      1.997906      0.044141   -999.250000     18.329723     30.195599      0.821774      0.824732      0.409092   -999.250000   -999.250000
    1186.7913     60.937813    142.182617      1.995542      0.028185   -999.250000     19.706623     30.162567      0.800871      0.806656      0.265127   -999.250000   -999.250000
    1186.6387     63.371399    141.138275      1.978787      0.015847   -999.250000     19.861118     30.133976      0.787429      0.787897      0.327665   -999.250000   -999.250000
    1186.4863     62.474709    142.739166      1.977632      0.011344   -999.250000     18.590839     30.109039      0.779376      0.782168      0.383880   -999.250000   -999.250000
    1186.3340     66.639465    144.667603      1.976941      0.017247   -999.250000     20.498787     30.084682      0.826244      0.832818      0.432283   -999.250000   -999.250000
    1186.1816     66.853271    144.722961      2.023350      0.041694   -999.250000     19.117481     30.050716      0.844988      0.855513      0.409572   -999.250000   -999.250000
    1186.0291     67.084641    142.765564      2.032883      0.020552   -999.250000     18.833984     30.017521      0.851287      0.818485      0.386679   -999.250000   -999.250000
    1185.8767     67.230331    138.617798      2.050476      0.039453   -999.250000     18.350948     29.984356      0.793940      0.797267      0.459351   -999.250000   -999.250000
    1185.7244     64.710648    136.837646      2.012962      0.021130   -999.250000     18.361439     29.975533      0.774084      0.781391      0.487777   -999.250000   -999.250000
    1185.5720     62.686981    135.118256      2.032147      0.054868   -999.250000     18.896702     29.991169      0.759916      0.768192      0.437225   -999.250000   -999.250000
