# LAS format data
~Version Information
VERS.     2.00: CWLS LOG ASCII STANDARD - VERSION 2.0
WRAP.       NO: ONE LINE PER DEPTH STEP
~Well Information
#MNEM   .UNITS    DATA                           DESCRIPTION
#----   ------    ----                           -----------
STRT    .M        3156.8657                     :First Index Value
STOP    .M        38.0000                       :Last Index Value
STEP    .M        -0.1524                       :Frame Spacing
NULL    .         -999.2500                     :Absent Value
WELL    .         F/3-4                         :Well Name
FLD     .         APPRAISAL                     :Field Name
CNTY    .         NETHERLANDS                   :County
STAT    .         NORTH SEA                     :State
CTRY    .                                       :Country
LOC     .                                       :Location
API     .                                       :API Number
DATE    .                                       :Date
COMP    .         N.A.M.                        :Company Name
SRVC    .                                       :Service Company
~Other Information
GR RUN 1 FROM FDN SHIFTED +2M AS PER COMMENTS ON LOG HEADER 
~Curve Information
#MNEM   .UNITS    API CODE                       CURVE DESCRIPTION
#----   ------    --------                       -----------------
DEPT    .M                                      :1     Index curve
GR      .GAPI                                   :2     BHCFDN
DT      .US/F                                   :3     BHC   
RHOB    .G/CC                                   :4     FDN   
DRHO    .G/CC                                   :5     FDN   
NPHI    .PU                                     :6     FDN   
CALI    .IN                                     :7     FDN   
SP      .MV                                     :8     DLL   
LLS     .OHMM                                   :9     DLL   
LLD     .OHMM                                   :10    DLL   
MSFL    .OHMM                                   :11    DLL   
SN      .OHMM                                   :12    IEL   
ILD     .OHMM                                   :13    IEL   
~Ascii Log Data
# ...
    1011.0740     61.151932    129.875641      2.159822      0.006073   -999.250000     17.822357     47.596779      0.463244      0.397613      0.404948   -999.250000   -999.250000
    1010.9216     63.992256    130.145355      2.133276      0.004888   -999.250000     17.823223     47.958504      0.464743      0.440877      0.450511   -999.250000   -999.250000
    1010.7692     65.006516    128.516663      2.119999      0.004875   -999.250000     17.823929     47.918701      0.459430      0.452574      0.505152   -999.250000   -999.250000
    1010.6168     64.414062    128.225769      2.134035      0.016180   -999.250000     17.824730     47.827202      0.455208      0.454262      0.549887   -999.250000   -999.250000
    1010.4644     62.587746    127.580902      2.163985      0.032244   -999.250000     17.829739     47.690399      0.451290      0.428128      0.474964   -999.250000   -999.250000
    1010.3120     61.199387    127.686554      2.174435      0.018178   -999.250000     17.836758     47.561104      0.458415      0.389107      0.396515   -999.250000   -999.250000
    1010.1595     66.838409    127.745331      2.168489      0.011766   -999.250000     17.836586     47.455513      0.472917      0.371919      0.385856   -999.250000   -999.250000
    1010.0072     64.092972    127.637741      2.166135      0.005531   -999.250000     17.836365     47.355423      0.487103      0.452472      0.475828   -999.250000   -999.250000
    1009.8547     65.400208    127.363403      2.174394      0.002209   -999.250000     17.836182     47.123543      0.556154      0.503194      0.544849   -999.250000   -999.250000
    1009.7024     69.257690    127.805603      2.189831      0.010316   -999.250000     17.833935     46.766960      0.614820      0.547361      0.619352   -999.250000   -999.250000
    1009.5499     68.670212    127.773911      2.186314      0.007787   -999.250000     17.832020     46.425667      0.630915      0.555367      0.671031   -999.250000   -999.250000
    1009.3976     68.768738    128.456482      2.174991      0.005136   -999.250000     17.830105     46.384132      0.636839      0.563498      0.654726   -999.250000   -999.250000
    1009.2452     71.635544    129.238159      2.179893      0.006918   -999.250000     17.828190     46.344315      0.618581      0.555508      0.621161   -999.250000   -999.250000
    1009.0928     75.895233    129.713928      2.167010      0.005279   -999.250000     17.823242     46.327118      0.610187      0.549608      0.600987   -999.250000   -999.250000
    1008.9404     77.463654    129.861511      2.146243      0.003568   -999.250000     17.815987     46.768448      0.574795      0.519329      0.631996   -999.250000   -999.250000
    1008.7880     72.429871    129.015533      2.127977      0.002504   -999.250000     17.808727     47.108322      0.541176      0.493812      0.565540   -999.250000   -999.250000
    1008.6356     67.837509    128.373718      2.125163      0.002104   -999.250000     17.805668     47.495689      0.505945      0.459313      0.509564   -999.250000   -999.250000
    1008.4832     62.151703    127.920380      2.138412      0.013788   -999.250000     17.804539     48.052574      0.483710      0.410956      0.485542   -999.250000   -999.250000
    1008.3308     63.945015    127.412201      2.153281      0.010830   -999.250000     17.803410     47.863266      0.478292      0.403455      0.482275   -999.250000   -999.250000
    1008.1783     67.086884    127.184952      2.162564      0.008257   -999.250000     17.802555     47.667068      0.502882      0.433640      0.495895   -999.250000   -999.250000
    1008.0260     67.202911    127.924057      2.183625      0.007436   -999.250000     17.806572     47.424179      0.517390      0.463591      0.554905   -999.250000   -999.250000
    1007.8735     65.348099    128.148315      2.174078      0.016705   -999.250000     17.809814     47.141312      0.525603      0.480199      0.570356   -999.250000   -999.250000
    1007.7212     69.177353    128.657257      2.163945      0.004974   -999.250000     17.812782     47.098488      0.535057      0.488975      0.544145   -999.250000   -999.250000
    1007.5687     71.052841    128.791504      2.173064      0.009955   -999.250000     17.816593     47.047226      0.547249      0.497283      0.558484   -999.250000   -999.250000
    1007.4164     69.618637    128.219147      2.190057      0.007135   -999.250000     17.820126     46.995964      0.561875      0.504376      0.590270   -999.250000   -999.250000
    1007.2640     71.933472    128.212738      2.197381      0.005759   -999.250000     17.826859     46.947334      0.573761      0.515997      0.599524   -999.250000   -999.250000
    1007.1116     74.388977    128.361725      2.194403      0.003980   -999.250000     17.832218     46.868843      0.587559      0.526239      0.607783   -999.250000   -999.250000
    1006.9592     77.992950    127.657440      2.210695      0.014815   -999.250000     17.847504     46.794144      0.600285      0.537901      0.669831   -999.250000   -999.250000
    1006.8068     78.764023    128.635620      2.203649      0.008421   -999.250000     17.837444     46.728546      0.600083      0.550432      0.644714   -999.250000   -999.250000
    1006.6544     74.050018    129.080078      2.176350      0.003125   -999.250000     17.833233     46.760887      0.599861      0.563526      0.635445   -999.250000   -999.250000
    1006.5020     70.319870    129.225647      2.160053     -0.000048   -999.250000     17.831413     46.789719      0.593123      0.563765      0.651811   -999.250000   -999.250000
    1006.3496     68.700073    130.223114      2.148398      0.000871   -999.250000     17.839447     46.858147      0.579465      0.529813      0.588230   -999.250000   -999.250000
    1006.1971     65.796036    128.984619      2.146595     -0.000980   -999.250000     17.844566     46.963219      0.563825      0.504323      0.544075   -999.250000   -999.250000
    1006.0448     61.076050    129.632202      2.157273     -0.002277   -999.250000     17.846382     47.068283      0.544024      0.480977      0.514754   -999.250000   -999.250000
    1005.8923     57.908775    130.275604      2.150156      0.005590   -999.250000     17.819115     47.205521      0.524911      0.463179      0.490288   -999.250000   -999.250000
    1005.7400     59.024788    130.379852      2.158496      0.009233   -999.250000     17.806126     47.371124      0.512794      0.447140      0.488187   -999.250000   -999.250000
    1005.5875     60.297546    130.017151      2.146941      0.010716   -999.250000     17.803379     47.536728      0.502800      0.435714      0.519824   -999.250000   -999.250000
    1005.4352     61.060699    129.408447      2.136203      0.005151   -999.250000     17.801247     47.586266      0.490883      0.424373      0.467682   -999.250000   -999.250000
    1005.2828     62.417854    128.294403      2.127343      0.010520   -999.250000     17.799999     47.358994      0.479305      0.411908      0.431670   -999.250000   -999.250000
    1005.1304     64.007050    127.284592      2.139578      0.009576   -999.250000     17.798756     47.225426      0.478901      0.395571      0.463926   -999.250000   -999.250000
    1004.9780     65.858582    127.379562      2.151893      0.006396   -999.250000     17.797951     47.094536      0.478627      0.384191      0.404424   -999.250000   -999.250000
    1004.8256     67.947861    127.800781      2.154223      0.001193   -999.250000     17.815910     46.968948      0.499804      0.423680      0.426109   -999.250000   -999.250000
    1004.6732     70.231445    128.595276      2.157176      0.004053   -999.250000     17.829178     46.843361      0.539549      0.461908      0.542955   -999.250000   -999.250000
    1004.5208     71.252060    128.045959      2.177929      0.006710   -999.250000     17.844006     46.717781      0.564110      0.505792      0.665725   -999.250000   -999.250000
