# LAS format data
~Version Information
VERS.     2.00: CWLS LOG ASCII STANDARD - VERSION 2.0
WRAP.       NO: ONE LINE PER DEPTH STEP
~Well Information
#MNEM   .UNITS    DATA                           DESCRIPTION
#----   ------    ----                           -----------
STRT    .M        3156.8657                     :First Index Value
STOP    .M        38.0000                       :Last Index Value
STEP    .M        -0.1524                       :Frame Spacing
NULL    .         -999.2500                     :Absent Value
WELL    .         F/3-4                         :Well Name
FLD     .         APPRAISAL                     :Field Name
CNTY    .         NETHERLANDS                   :County
STAT    .         NORTH SEA                     :State
CTRY    .                                       :Country
LOC     .                                       :Location
API     .                                       :API Number
DATE    .                                       :Date
COMP    .         N.A.M.                        :Company Name
SRVC    .                                       :Service Company
~Other Information
GR RUN 1 FROM FDN SHIFTED +2M AS PER COMMENTS ON LOG HEADER 
~Curve Information
#MNEM   .UNITS    API CODE                       CURVE DESCRIPTION
#----   ------    --------                       -----------------
DEPT    .M                                      :1     Index curve
GR      .GAPI                                   :2     BHCFDN
DT      .US/F                                   :3     BHC   
RHOB    .G/CC                                   :4     FDN   
DRHO    .G/CC                                   :5     FDN   
NPHI    .PU                                     :6     FDN   
CALI    .IN                                     :7     FDN   
SP      .MV                                     :8     DLL   
LLS     .OHMM                                   :9     DLL   
LLD     .OHMM                                   :10    DLL   
MSFL    .OHMM                                   :11    DLL   
SN      .OHMM                                   :12    IEL   
ILD     .OHMM                                   :13    IEL   
~Ascii Log Data
# ...
    1909.6243     15.424826     83.238312      2.395127      0.049851   -999.250000     12.598192     54.933342      0.378893      0.185885      0.441880      0.516718      0.340519
    1909.4719     16.030857     83.301361      2.388117      0.057230   -999.250000     12.588621     55.177200      0.369532      0.185375      0.414963      0.512788      0.351192
    1909.3196     14.637709     83.355743      2.368114      0.042690   -999.250000     12.656467     55.279312      0.365314      0.184867      0.431279      0.516070      0.365547
    1909.1672     12.927460     83.385452      2.361938      0.031101   -999.250000     12.721790     55.246864      0.389952      0.184417      0.465961      0.520142      0.384615
    1909.0146     12.551224     83.679810      2.357743      0.034434   -999.250000     12.616589     55.226357      0.403079      0.184123      0.509948      0.530191      0.405475
    1908.8623     14.712536     85.159134      2.371999      0.041798   -999.250000     12.576035     55.205513      0.416660      0.183859      0.531547      0.539749      0.446555
    1908.7100     14.829571     85.494781      2.357335      0.034892   -999.250000     12.560364     55.213058      0.421914      0.183573      0.503800      0.549185      0.472072
    1908.5576     12.452435     83.395584      2.351073      0.026545   -999.250000     12.547211     55.220726      0.422831      0.183700      0.483365      0.559459      0.481276
    1908.4053     12.079159     85.479599      2.356786      0.033127   -999.250000     12.539219     55.229141      0.423956      0.183838      0.473370      0.565264      0.478769
    1908.2527     13.572779     84.824173      2.364777      0.035430   -999.250000     12.537104     55.344925      0.423093      0.183977      0.495759      0.560631      0.477292
    1908.1003     14.404402     86.666260      2.383272      0.031119   -999.250000     12.535006     55.473251      0.421981      0.184091      0.513360      0.566608      0.482097
    1907.9480     12.382833     89.998978      2.384226      0.044963   -999.250000     12.517954     55.568184      0.420871      0.184183      0.511361      0.574126      0.492557
    1907.7957     11.184032     86.252945      2.353322      0.035359   -999.250000     12.501026     55.423691      0.415328      0.184276      0.508882      0.575160      0.497494
    1907.6431     12.076632     82.819183      2.340321      0.039193   -999.250000     12.486103     55.309059      0.407672      0.184368      0.506296      0.576405      0.500293
    1907.4907     12.968819     81.078934      2.348209      0.029699   -999.250000     12.472404     55.213959      0.402065      0.184451      0.537621      0.577292      0.496954
    1907.3384     14.495964     79.549377      2.365380      0.035096   -999.250000     12.460155     55.155769      0.401753      0.184799      0.515724      0.569666      0.484609
    1907.1860     15.916252     81.828583      2.380447      0.040385   -999.250000     12.447182     55.090912      0.401441      0.185113      0.505183      0.563817      0.473251
    1907.0334     16.976280     80.345856      2.382541      0.043617   -999.250000     12.496719     55.113625      0.401167      0.185427      0.555229      0.557650      0.450298
    1906.8811     17.266640     80.883835      2.369010      0.049000   -999.250000     12.654715     55.139252      0.378798      0.185801      0.495396      0.557303      0.441574
    1906.7288     14.913811     81.555923      2.381392      0.052588   -999.250000     12.596111     55.164894      0.372091      0.184933      0.467290      0.556932      0.435215
    1906.5764     13.200455     84.724701      2.364254      0.053249   -999.250000     12.582050     55.187424      0.419313      0.183872      0.517507      0.550669      0.444530
    1906.4241     13.810944     86.035950      2.333971      0.038296   -999.250000     12.564795     55.209305      0.413265      0.182817      0.568608      0.541566      0.454721
    1906.2715     14.703201     87.293304      2.309633      0.020892   -999.250000     12.551355     55.228806      0.404835      0.181769      0.580031      0.537933      0.464583
    1906.1191     14.389267     87.943665      2.304657      0.026268   -999.250000     12.521175     55.243767      0.396024      0.181144      0.480602      0.548757      0.460445
    1905.9668     14.091255     88.617142      2.328622      0.035247   -999.250000     12.491528     55.343422      0.387412      0.181021      0.382949      0.553248      0.453449
    1905.8145     13.213867     89.267715      2.308454      0.038664   -999.250000     12.420033     55.424255      0.384983      0.180898      0.349601      0.556198      0.442848
    1905.6619     12.416941     90.618027      2.293643      0.024603   -999.250000     12.364660     55.486443      0.395749      0.180775      0.435136      0.557324      0.440343
    1905.5095     11.951612     87.761765      2.305466      0.015449   -999.250000     12.350180     55.499977      0.400485      0.180720      0.502324      0.558818      0.441235
    1905.3572     12.303288     81.736969      2.299393      0.028101   -999.250000     12.344683     55.510979      0.392332      0.181537      0.379193      0.561555      0.441979
    1905.2048     12.420277     78.186157      2.318239      0.019501   -999.250000     12.415207     55.519005      0.383851      0.182063      0.320251      0.542229      0.432179
    1905.0522     13.250811     85.202469      2.342920      0.028699   -999.250000     12.444803     55.525787      0.375285      0.182590      0.332814      0.520424      0.417854
    1904.8999     13.985064     86.786819      2.367063      0.017523   -999.250000     12.428333     55.532570      0.365605      0.183083      0.375159      0.529595      0.411697
    1904.7476     14.157715     76.188782      2.384531      0.024531   -999.250000     12.415859     55.536438      0.354029      0.183125      0.446363      0.561422      0.425072
    1904.5952     12.911751     78.904984      2.363083      0.035474   -999.250000     12.412580     55.525703      0.339764      0.183165      0.371688      0.535332      0.432897
    1904.4429     13.332260     79.732330      2.333904      0.031468   -999.250000     12.557489     55.518188      0.323422      0.183205      0.404112      0.525834      0.434983
    1904.2903     14.068111     83.798553      2.299037      0.023406   -999.250000     12.554157     55.510872      0.329919      0.183246      0.423763      0.517471      0.429621
    1904.1379     15.283033     90.362122      2.281559      0.006938   -999.250000     12.578329     55.574265      0.332265      0.182866      0.362612      0.509580      0.416157
    1903.9856     15.235334     78.047226      2.288119      0.017507   -999.250000     12.598333     55.636032      0.296455      0.182479      0.339238      0.501498      0.400341
    1903.8333     13.267267     73.731598      2.273258      0.014802   -999.250000     12.612707     55.697845      0.268972      0.182092      0.321280      0.493303      0.378611
    1903.6807     11.357994     75.589264      2.292808      0.012671   -999.250000     12.615808     55.719574      0.250014      0.181709      0.307960      0.485201      0.353583
    1903.5283     12.311628     73.591553      2.318605      0.019246   -999.250000     12.619148     55.309387      0.278063      0.182159      0.294692      0.476230      0.321491
    1903.3760     12.954407     76.900742      2.350591      0.033721   -999.250000     12.600237     55.060646      0.312230      0.182607      0.290849      0.473554      0.301342
    1903.2236     12.178608     77.751541      2.365104      0.031609   -999.250000     12.579754     54.850769      0.371927      0.183057      0.395124      0.470528      0.293061
    1903.0710     13.400146     77.236633      2.379424      0.029425   -999.250000     12.562910     54.918671      0.403577      0.183508      1.161720      0.468269      0.303166
